[
  {
    "city": "Alipur",
    "lat": 13.21409,
    "lon": 92.94347,
    "state": "Andaman and Nicobar Islands",
    "state_code": "34"
  },
  {
    "city": "Andaman Island",
    "lat": 13.21409,
    "lon": 92.94347,
    "state": "Andaman and Nicobar Islands",
    "state_code": "34"
  },
  {
    "city": "Anderson Island",
    "lat": 44.868401,
    "lon": -79.283851,
    "state": "Andaman and Nicobar Islands",
    "state_code": "34"
  },
  {
    "city": "Arainj-Laka-Punga",
    "lat": 13.21409,
    "lon": 92.94347,
    "state": "Andaman and Nicobar Islands",
    "state_code": "34"
  },
  {
    "city": "Austinabad",
    "lat": 11.8745,
    "lon": 92.6503,
    "state": "Andaman and Nicobar Islands",
    "state_code": "34"
  },
  {
    "city": "Bamboo Flat",
    "lat": 11.712632,
    "lon": 92.716386,
    "state": "Andaman and Nicobar Islands",
    "state_code": "34"
  },
  {
    "city": "Barren Island",
    "lat": 12.41647,
    "lon": 92.7831,
    "state": "Andaman and Nicobar Islands",
    "state_code": "34"
  },
  {
    "city": "Beadonabad",
    "lat": 13.21409,
    "lon": 92.94347,
    "state": "Andaman and Nicobar Islands",
    "state_code": "34"
  },
  {
    "city": "Betapur",
    "lat": 13.21409,
    "lon": 92.94347,
    "state": "Andaman and Nicobar Islands",
    "state_code": "34"
  },
  {
    "city": "Bindraban",
    "lat": 13.21409,
    "lon": 92.94347,
    "state": "Andaman and Nicobar Islands",
    "state_code": "34"
  },
  {
    "city": "Bonington",
    "lat": 13.21409,
    "lon": 92.94347,
    "state": "Andaman and Nicobar Islands",
    "state_code": "34"
  },
  {
    "city": "Brookesabad",
    "lat": 13.21409,
    "lon": 92.94347,
    "state": "Andaman and Nicobar Islands",
    "state_code": "34"
  },
  {
    "city": "Cadell Point",
    "lat": 13.21409,
    "lon": 92.94347,
    "state": "Andaman and Nicobar Islands",
    "state_code": "34"
  },
  {
    "city": "Calicut",
    "lat": 13.21409,
    "lon": 92.94347,
    "state": "Kerala",
    "state_code": "35"
  },
  {
    "city": "Chetamale",
    "lat": 13.21409,
    "lon": 92.94347,
    "state": "Andaman and Nicobar Islands",
    "state_code": "34"
  },
  {
    "city": "Cinque Islands",
    "lat": 13.21409,
    "lon": 92.94347,
    "state": "Andaman and Nicobar Islands",
    "state_code": "34"
  },
  {
    "city": "Defence Island",
    "lat": 13.21409,
    "lon": 92.94347,
    "state": "Andaman and Nicobar Islands",
    "state_code": "34"
  },
  {
    "city": "Digilpur",
    "lat": 13.21409,
    "lon": 92.94347,
    "state": "Andaman and Nicobar Islands",
    "state_code": "34"
  },
  {
    "city": "Dolyganj",
    "lat": 13.21409,
    "lon": 92.94347,
    "state": "Andaman and Nicobar Islands",
    "state_code": "34"
  },
  {
    "city": "Flat Island",
    "lat": 13.21409,
    "lon": 92.94347,
    "state": "Andaman and Nicobar Islands",
    "state_code": "34"
  },
  {
    "city": "Geinyale",
    "lat": 13.21409,
    "lon": 92.94347,
    "state": "Andaman and Nicobar Islands",
    "state_code": "34"
  },
  {
    "city": "Great Coco Island",
    "lat": 41.383418,
    "lon": -71.507725,
    "state": "Andaman and Nicobar Islands",
    "state_code": "34"
  },
  {
    "city": "Haddo",
    "lat": 13.21409,
    "lon": 92.94347,
    "state": "Andaman and Nicobar Islands",
    "state_code": "34"
  },
  {
    "city": "Havelock Island",
    "lat": 11.965195,
    "lon": 92.995621,
    "state": "Andaman and Nicobar Islands",
    "state_code": "34"
  },
  {
    "city": "Henry Lawrence Island",
    "lat": 12.135386,
    "lon": 93.07661,
    "state": "Andaman and Nicobar Islands",
    "state_code": "34"
  },
  {
    "city": "Herbertabad",
    "lat": 13.21409,
    "lon": 92.94347,
    "state": "Andaman and Nicobar Islands",
    "state_code": "34"
  },
  {
    "city": "Hobdaypur",
    "lat": 13.21409,
    "lon": 92.94347,
    "state": "Andaman and Nicobar Islands",
    "state_code": "34"
  },
  {
    "city": "Ilichar",
    "lat": 13.21409,
    "lon": 92.94347,
    "state": "Andaman and Nicobar Islands",
    "state_code": "34"
  },
  {
    "city": "Ingoie",
    "lat": 13.21409,
    "lon": 92.94347,
    "state": "Andaman and Nicobar Islands",
    "state_code": "34"
  },
  {
    "city": "Jangli Ghat",
    "lat": 13.21409,
    "lon": 92.94347,
    "state": "Andaman and Nicobar Islands",
    "state_code": "34"
  },
  {
    "city": "Jhon Lawrence Island",
    "lat": 12.10287,
    "lon": 93.032511,
    "state": "Andaman and Nicobar Islands",
    "state_code": "34"
  },
  {
    "city": "Karen",
    "lat": 13.21409,
    "lon": 92.94347,
    "state": "Andaman and Nicobar Islands",
    "state_code": "34"
  },
  {
    "city": "Kartara",
    "lat": 13.21409,
    "lon": 92.94347,
    "state": "Andaman and Nicobar Islands",
    "state_code": "34"
  },
  {
    "city": "KYD Islannd",
    "lat": 13.21409,
    "lon": 92.94347,
    "state": "Andaman and Nicobar Islands",
    "state_code": "34"
  },
  {
    "city": "Landfall Island",
    "lat": 13.651271,
    "lon": 93.003798,
    "state": "Andaman and Nicobar Islands",
    "state_code": "34"
  },
  {
    "city": "Little Andmand",
    "lat": 13.21409,
    "lon": 92.94347,
    "state": "Andaman and Nicobar Islands",
    "state_code": "34"
  },
  {
    "city": "Little Coco Island",
    "lat": 6.741313,
    "lon": 122.250983,
    "state": "Andaman and Nicobar Islands",
    "state_code": "34"
  },
  {
    "city": "Long Island",
    "lat": 13.21409,
    "lon": 92.94347,
    "state": "Andaman and Nicobar Islands",
    "state_code": "34"
  },
  {
    "city": "Maimyo",
    "lat": 13.21409,
    "lon": 92.94347,
    "state": "Andaman and Nicobar Islands",
    "state_code": "34"
  },
  {
    "city": "Malappuram",
    "lat": 11.788427,
    "lon": 92.711051,
    "state": "Kerala",
    "state_code": "35"
  },
  {
    "city": "Manglutan",
    "lat": 13.21409,
    "lon": 92.94347,
    "state": "Andaman and Nicobar Islands",
    "state_code": "34"
  },
  {
    "city": "Manpur",
    "lat": 13.21409,
    "lon": 92.94347,
    "state": "Madhya Pradesh",
    "state_code": "35"
  },
  {
    "city": "Mitha Khari",
    "lat": 13.21409,
    "lon": 92.94347,
    "state": "Andaman and Nicobar Islands",
    "state_code": "34"
  },
  {
    "city": "Neill Island",
    "lat": 13.21409,
    "lon": 92.94347,
    "state": "Andaman and Nicobar Islands",
    "state_code": "34"
  },
  {
    "city": "Nicobar Island",
    "lat": 9.187057,
    "lon": 92.773014,
    "state": "Andaman and Nicobar Islands",
    "state_code": "34"
  },
  {
    "city": "North Brother Island",
    "lat": 10.986995,
    "lon": 92.664352,
    "state": "Andaman and Nicobar Islands",
    "state_code": "34"
  },
  {
    "city": "North Passage Island",
    "lat": 12.270614,
    "lon": 92.926619,
    "state": "Andaman and Nicobar Islands",
    "state_code": "34"
  },
  {
    "city": "North Sentinel Island",
    "lat": 11.556345,
    "lon": 92.243539,
    "state": "Andaman and Nicobar Islands",
    "state_code": "34"
  },
  {
    "city": "Nothen Reef Island",
    "lat": 53.92664,
    "lon": 9.552936,
    "state": "Andaman and Nicobar Islands",
    "state_code": "34"
  },
  {
    "city": "Outram Island",
    "lat": 13.21409,
    "lon": 92.94347,
    "state": "Andaman and Nicobar Islands",
    "state_code": "34"
  },
  {
    "city": "Pahlagaon",
    "lat": 12.829725,
    "lon": 92.858562,
    "state": "Andaman and Nicobar Islands",
    "state_code": "34"
  },
  {
    "city": "Palalankwe",
    "lat": 13.21409,
    "lon": 92.94347,
    "state": "Andaman and Nicobar Islands",
    "state_code": "34"
  },
  {
    "city": "Passage Island",
    "lat": 12.273944,
    "lon": 92.929384,
    "state": "Andaman and Nicobar Islands",
    "state_code": "34"
  },
  {
    "city": "Phaiapong",
    "lat": 13.21409,
    "lon": 92.94347,
    "state": "Andaman and Nicobar Islands",
    "state_code": "34"
  },
  {
    "city": "Phoenix Island",
    "lat": 13.21409,
    "lon": 92.94347,
    "state": "Andaman and Nicobar Islands",
    "state_code": "34"
  },
  {
    "city": "Port Blair",
    "lat": 11.664535,
    "lon": 92.739045,
    "state": "Andaman and Nicobar Islands",
    "state_code": "34"
  },
  {
    "city": "Preparis Island",
    "lat": 10.973998,
    "lon": 76.761482,
    "state": "Andaman and Nicobar Islands",
    "state_code": "34"
  },
  {
    "city": "Protheroepur",
    "lat": 13.21409,
    "lon": 92.94347,
    "state": "Andaman and Nicobar Islands",
    "state_code": "34"
  },
  {
    "city": "Rangachang",
    "lat": 13.21409,
    "lon": 92.94347,
    "state": "Andaman and Nicobar Islands",
    "state_code": "34"
  },
  {
    "city": "Rongat",
    "lat": 13.21409,
    "lon": 92.94347,
    "state": "Andaman and Nicobar Islands",
    "state_code": "34"
  },
  {
    "city": "Rutland Island",
    "lat": 13.21409,
    "lon": 92.94347,
    "state": "Andaman and Nicobar Islands",
    "state_code": "34"
  },
  {
    "city": "Sabari",
    "lat": 13.21409,
    "lon": 92.94347,
    "state": "Andaman and Nicobar Islands",
    "state_code": "34"
  },
  {
    "city": "Saddle Peak",
    "lat": 13.21409,
    "lon": 92.94347,
    "state": "Andaman and Nicobar Islands",
    "state_code": "34"
  },
  {
    "city": "Shadipur",
    "lat": 13.21409,
    "lon": 92.94347,
    "state": "Andaman and Nicobar Islands",
    "state_code": "34"
  },
  {
    "city": "Smith Island",
    "lat": 13.21409,
    "lon": 92.94347,
    "state": "Andaman and Nicobar Islands",
    "state_code": "34"
  },
  {
    "city": "Sound Island",
    "lat": 13.21409,
    "lon": 92.94347,
    "state": "Andaman and Nicobar Islands",
    "state_code": "34"
  },
  {
    "city": "South Sentinel Island",
    "lat": 10.977535,
    "lon": 92.220905,
    "state": "Andaman and Nicobar Islands",
    "state_code": "34"
  },
  {
    "city": "Spike Island",
    "lat": 13.21409,
    "lon": 92.94347,
    "state": "Andaman and Nicobar Islands",
    "state_code": "34"
  },
  {
    "city": "Tarmugli Island",
    "lat": 11.580953,
    "lon": 92.545166,
    "state": "Andaman and Nicobar Islands",
    "state_code": "34"
  },
  {
    "city": "Taylerabad",
    "lat": 13.21409,
    "lon": 92.94347,
    "state": "Andaman and Nicobar Islands",
    "state_code": "34"
  },
  {
    "city": "Titaije",
    "lat": 13.21409,
    "lon": 92.94347,
    "state": "Andaman and Nicobar Islands",
    "state_code": "34"
  },
  {
    "city": "Toibalawe",
    "lat": 13.21409,
    "lon": 92.94347,
    "state": "Andaman and Nicobar Islands",
    "state_code": "34"
  },
  {
    "city": "Tusonabad",
    "lat": 13.21409,
    "lon": 92.94347,
    "state": "Andaman and Nicobar Islands",
    "state_code": "34"
  },
  {
    "city": "West Island",
    "lat": 13.21409,
    "lon": 92.94347,
    "state": "Andaman and Nicobar Islands",
    "state_code": "34"
  },
  {
    "city": "Wimberleyganj",
    "lat": 11.736185,
    "lon": 92.70724,
    "state": "Andaman and Nicobar Islands",
    "state_code": "34"
  },
  {
    "city": "Yadita",
    "lat": 13.21409,
    "lon": 92.94347,
    "state": "Andaman and Nicobar Islands",
    "state_code": "34"
  },
  {
    "city": "Achampet",
    "lat": 16.399,
    "lon": 78.637,
    "state": "Telangana",
    "state_code": "36"
  },
  {
    "city": "Adilabad",
    "lat": 19.67,
    "lon": 78.53,
    "state": "Telangana",
    "state_code": "36"
  },
  {
    "city": "Adoni",
    "lat": 15.6279,
    "lon": 77.2749,
    "state": "Andhra Pradesh",
    "state_code": "28"
  },
  {
    "city": "Alampur",
    "lat": 15.8793,
    "lon": 78.1334,
    "state": "Andhra Pradesh",
    "state_code": "28"
  },
  {
    "city": "Allagadda",
    "lat": 15.1322,
    "lon": 78.5138,
    "state": "Andhra Pradesh",
    "state_code": "28"
  },
  {
    "city": "Alur",
    "lat": 15.3942,
    "lon": 77.2264,
    "state": "Karnataka",
    "state_code": "28"
  },
  {
    "city": "Amalapuram",
    "lat": 16.5787,
    "lon": 82.0061,
    "state": "Andhra Pradesh",
    "state_code": "28"
  },
  {
    "city": "Amangallu",
    "lat": 14.762005,
    "lon": 78.874889,
    "state": "Andhra Pradesh",
    "state_code": "28"
  },
  {
    "city": "Anakapalle",
    "lat": 17.6913,
    "lon": 83.0039,
    "state": "Andhra Pradesh",
    "state_code": "28"
  },
  {
    "city": "Anantapur",
    "lat": 14.68,
    "lon": 77.599,
    "state": "Andhra Pradesh",
    "state_code": "28"
  },
  {
    "city": "Andole",
    "lat": 17.815092,
    "lon": 78.075184,
    "state": "Andhra Pradesh",
    "state_code": "28"
  },
  {
    "city": "Araku",
    "lat": 18.338324,
    "lon": 82.846919,
    "state": "Andhra Pradesh",
    "state_code": "28"
  },
  {
    "city": "Armoor",
    "lat": 18.790448,
    "lon": 78.29072,
    "state": "Andhra Pradesh",
    "state_code": "28"
  },
  {
    "city": "Asifabad",
    "lat": 19.359346,
    "lon": 79.29604,
    "state": "Telangana",
    "state_code": "36"
  },
  {
    "city": "Aswaraopet",
    "lat": 17.238394,
    "lon": 81.125409,
    "state": "Andhra Pradesh",
    "state_code": "28"
  },
  {
    "city": "Atmakur",
    "lat": 18.0718,
    "lon": 79.7386,
    "state": "Telangana",
    "state_code": "36"
  },
  {
    "city": "B. Kothakota",
    "lat": 13.667734,
    "lon": 78.325131,
    "state": "Andhra Pradesh",
    "state_code": "28"
  },
  {
    "city": "Badvel",
    "lat": 14.75,
    "lon": 79.05,
    "state": "Andhra Pradesh",
    "state_code": "28"
  },
  {
    "city": "Banaganapalle",
    "lat": 15.320573,
    "lon": 78.224988,
    "state": "Andhra Pradesh",
    "state_code": "28"
  },
  {
    "city": "Bandar",
    "lat": 16.181737,
    "lon": 81.134818,
    "state": "Andhra Pradesh",
    "state_code": "28"
  },
  {
    "city": "Bangarupalem",
    "lat": 13.19096,
    "lon": 78.912899,
    "state": "Andhra Pradesh",
    "state_code": "28"
  },
  {
    "city": "Banswada",
    "lat": 18.3833,
    "lon": 77.8833,
    "state": "Telangana",
    "state_code": "36"
  },
  {
    "city": "Bapatla",
    "lat": 15.9044,
    "lon": 80.4675,
    "state": "Andhra Pradesh",
    "state_code": "28"
  },
  {
    "city": "Bellampalli",
    "lat": 19.063903,
    "lon": 79.487312,
    "state": "Andhra Pradesh",
    "state_code": "28"
  },
  {
    "city": "Bhadrachalam",
    "lat": 17.6669,
    "lon": 80.8826,
    "state": "Telangana",
    "state_code": "36"
  },
  {
    "city": "Bhainsa",
    "lat": 19.1,
    "lon": 77.9667,
    "state": "Telangana",
    "state_code": "36"
  },
  {
    "city": "Bheemunipatnam",
    "lat": 17.891385,
    "lon": 83.450874,
    "state": "Andhra Pradesh",
    "state_code": "28"
  },
  {
    "city": "Bhimadole",
    "lat": 16.810331,
    "lon": 81.264306,
    "state": "Andhra Pradesh",
    "state_code": "28"
  },
  {
    "city": "Bhimavaram",
    "lat": 16.543,
    "lon": 81.523,
    "state": "Andhra Pradesh",
    "state_code": "28"
  },
  {
    "city": "Bhongir",
    "lat": 17.51,
    "lon": 78.89,
    "state": "Telangana",
    "state_code": "36"
  },
  {
    "city": "Boath",
    "lat": 19.343571,
    "lon": 78.329161,
    "state": "Andhra Pradesh",
    "state_code": "28"
  },
  {
    "city": "Bobbili",
    "lat": 18.5667,
    "lon": 83.3667,
    "state": "Andhra Pradesh",
    "state_code": "28"
  },
  {
    "city": "Bodhan",
    "lat": 18.67,
    "lon": 77.9,
    "state": "Telangana",
    "state_code": "36"
  },
  {
    "city": "Chandoor",
    "lat": 14.762005,
    "lon": 78.874889,
    "state": "Andhra Pradesh",
    "state_code": "28"
  },
  {
    "city": "Chavitidibbalu",
    "lat": 17.61936,
    "lon": 81.984172,
    "state": "Andhra Pradesh",
    "state_code": "28"
  },
  {
    "city": "Chejerla",
    "lat": 15.526935,
    "lon": 80.142816,
    "state": "Andhra Pradesh",
    "state_code": "28"
  },
  {
    "city": "Chepurupalli",
    "lat": 14.762005,
    "lon": 78.874889,
    "state": "Andhra Pradesh",
    "state_code": "28"
  },
  {
    "city": "Cherial",
    "lat": 17.9264,
    "lon": 78.9719,
    "state": "Andhra Pradesh",
    "state_code": "28"
  },
  {
    "city": "Chevella",
    "lat": 17.937642,
    "lon": 77.911732,
    "state": "Andhra Pradesh",
    "state_code": "28"
  },
  {
    "city": "Chinnor",
    "lat": 14.762005,
    "lon": 78.874889,
    "state": "Andhra Pradesh",
    "state_code": "28"
  },
  {
    "city": "Chintalapudi",
    "lat": 17.0417,
    "lon": 80.5901,
    "state": "Andhra Pradesh",
    "state_code": "28"
  },
  {
    "city": "Chintapalle",
    "lat": 17.8667,
    "lon": 82.35,
    "state": "Andhra Pradesh",
    "state_code": "28"
  },
  {
    "city": "Chirala",
    "lat": 15.8246,
    "lon": 80.3521,
    "state": "Andhra Pradesh",
    "state_code": "28"
  },
  {
    "city": "Chittoor",
    "lat": 13.216,
    "lon": 79.098,
    "state": "Andhra Pradesh",
    "state_code": "28"
  },
  {
    "city": "Chodavaram",
    "lat": 17.438,
    "lon": 81.7781,
    "state": "Andhra Pradesh",
    "state_code": "28"
  },
  {
    "city": "Cuddapah",
    "lat": 14.47,
    "lon": 78.82,
    "state": "Andhra Pradesh",
    "state_code": "28"
  },
  {
    "city": "Cumbum",
    "lat": 15.5667,
    "lon": 79.1167,
    "state": "Tamil Nadu",
    "state_code": "28"
  },
  {
    "city": "Darsi",
    "lat": 15.7667,
    "lon": 79.6833,
    "state": "Andhra Pradesh",
    "state_code": "28"
  },
  {
    "city": "Devarakonda",
    "lat": 17.424772,
    "lon": 78.444006,
    "state": "Telangana",
    "state_code": "36"
  },
  {
    "city": "Dharmavaram",
    "lat": 18.2164,
    "lon": 83.8856,
    "state": "Andhra Pradesh",
    "state_code": "28"
  },
  {
    "city": "Dichpalli",
    "lat": 14.762005,
    "lon": 78.874889,
    "state": "Andhra Pradesh",
    "state_code": "28"
  },
  {
    "city": "Divi",
    "lat": 17.933364,
    "lon": 83.47863,
    "state": "Andhra Pradesh",
    "state_code": "28"
  },
  {
    "city": "Donakonda",
    "lat": 15.831538,
    "lon": 79.486169,
    "state": "Andhra Pradesh",
    "state_code": "28"
  },
  {
    "city": "Dronachalam",
    "lat": 14.762005,
    "lon": 78.874889,
    "state": "Andhra Pradesh",
    "state_code": "28"
  },
  {
    "city": "East Godavari",
    "lat": 16.995664,
    "lon": 81.715438,
    "state": "Andhra Pradesh",
    "state_code": "28"
  },
  {
    "city": "Eluru",
    "lat": 16.710426,
    "lon": 81.115382,
    "state": "Andhra Pradesh",
    "state_code": "28"
  },
  {
    "city": "Eturnagaram",
    "lat": 18.340483,
    "lon": 80.429484,
    "state": "Andhra Pradesh",
    "state_code": "28"
  },
  {
    "city": "Gadwal",
    "lat": 16.23,
    "lon": 77.8,
    "state": "Telangana",
    "state_code": "36"
  },
  {
    "city": "Gajapathinagaram",
    "lat": 18.896424,
    "lon": 83.821122,
    "state": "Andhra Pradesh",
    "state_code": "28"
  },
  {
    "city": "Gajwel",
    "lat": 17.8517,
    "lon": 78.6828,
    "state": "Telangana",
    "state_code": "36"
  },
  {
    "city": "Garladinne",
    "lat": 16.245459,
    "lon": 79.560662,
    "state": "Andhra Pradesh",
    "state_code": "28"
  },
  {
    "city": "Giddalur",
    "lat": 15.3764,
    "lon": 78.9251,
    "state": "Andhra Pradesh",
    "state_code": "28"
  },
  {
    "city": "Godavari",
    "lat": 19.136032,
    "lon": 72.820996,
    "state": "Andhra Pradesh",
    "state_code": "28"
  },
  {
    "city": "Gooty",
    "lat": 15.121,
    "lon": 77.634,
    "state": "Andhra Pradesh",
    "state_code": "28"
  },
  {
    "city": "Gudivada",
    "lat": 17.3974,
    "lon": 82.7908,
    "state": "Andhra Pradesh",
    "state_code": "28"
  },
  {
    "city": "Gudur",
    "lat": 17.7956,
    "lon": 79.9747,
    "state": "Andhra Pradesh",
    "state_code": "28"
  },
  {
    "city": "Guntur",
    "lat": 16.3008,
    "lon": 80.4428,
    "state": "Andhra Pradesh",
    "state_code": "28"
  },
  {
    "city": "Hindupur",
    "lat": 13.83,
    "lon": 77.49,
    "state": "Andhra Pradesh",
    "state_code": "28"
  },
  {
    "city": "Hunsabad",
    "lat": 14.762005,
    "lon": 78.874889,
    "state": "Andhra Pradesh",
    "state_code": "28"
  },
  {
    "city": "Huzurabad",
    "lat": 18.2,
    "lon": 79.42,
    "state": "Andhra Pradesh",
    "state_code": "28"
  },
  {
    "city": "Huzurnagar",
    "lat": 16.9,
    "lon": 79.8833,
    "state": "Andhra Pradesh",
    "state_code": "28"
  },
  {
    "city": "Hyderabad",
    "lat": 17.442274,
    "lon": 78.460469,
    "state": "Telangana",
    "state_code": "36"
  },
  {
    "city": "Ibrahimpatnam",
    "lat": 16.6056,
    "lon": 80.3786,
    "state": "Telangana",
    "state_code": "36"
  },
  {
    "city": "Jaggayyapet",
    "lat": 16.891657,
    "lon": 80.099302,
    "state": "Andhra Pradesh",
    "state_code": "28"
  },
  {
    "city": "Jagtial",
    "lat": 18.7895,
    "lon": 78.912,
    "state": "Telangana",
    "state_code": "36"
  },
  {
    "city": "Jammalamadugu",
    "lat": 14.85,
    "lon": 78.38,
    "state": "Andhra Pradesh",
    "state_code": "28"
  },
  {
    "city": "Jangaon",
    "lat": 17.7227,
    "lon": 79.1518,
    "state": "Telangana",
    "state_code": "36"
  },
  {
    "city": "Jangareddygudem",
    "lat": 17.123821,
    "lon": 81.295963,
    "state": "Andhra Pradesh",
    "state_code": "28"
  },
  {
    "city": "Jannaram",
    "lat": 17.309547,
    "lon": 80.401446,
    "state": "Andhra Pradesh",
    "state_code": "28"
  },
  {
    "city": "Kadiri",
    "lat": 14.12,
    "lon": 78.17,
    "state": "Andhra Pradesh",
    "state_code": "28"
  },
  {
    "city": "Kaikaluru",
    "lat": 16.551192,
    "lon": 81.213131,
    "state": "Andhra Pradesh",
    "state_code": "28"
  },
  {
    "city": "Kakinada",
    "lat": 16.9661,
    "lon": 82.255,
    "state": "Andhra Pradesh",
    "state_code": "28"
  },
  {
    "city": "Kalwakurthy",
    "lat": 16.672132,
    "lon": 78.488073,
    "state": "Telangana",
    "state_code": "36"
  },
  {
    "city": "Kalyandurg",
    "lat": 14.551796,
    "lon": 77.11197,
    "state": "Andhra Pradesh",
    "state_code": "28"
  },
  {
    "city": "Kamalapuram",
    "lat": 18.16,
    "lon": 79.5406,
    "state": "Telangana",
    "state_code": "36"
  },
  {
    "city": "Kamareddy",
    "lat": 18.322209,
    "lon": 78.338712,
    "state": "Telangana",
    "state_code": "36"
  },
  {
    "city": "Kambadur",
    "lat": 14.392255,
    "lon": 77.203347,
    "state": "Andhra Pradesh",
    "state_code": "28"
  },
  {
    "city": "Kanaganapalle",
    "lat": 14.446683,
    "lon": 77.531339,
    "state": "Andhra Pradesh",
    "state_code": "28"
  },
  {
    "city": "Kandukuru",
    "lat": 13.764407,
    "lon": 78.156476,
    "state": "Andhra Pradesh",
    "state_code": "28"
  },
  {
    "city": "Kanigiri",
    "lat": 15.4,
    "lon": 79.5167,
    "state": "Andhra Pradesh",
    "state_code": "28"
  },
  {
    "city": "Karimnagar",
    "lat": 18.4386,
    "lon": 79.1288,
    "state": "Telangana",
    "state_code": "36"
  },
  {
    "city": "Kavali",
    "lat": 14.913,
    "lon": 79.9929,
    "state": "Andhra Pradesh",
    "state_code": "28"
  },
  {
    "city": "Khammam",
    "lat": 17.2473,
    "lon": 80.1514,
    "state": "Telangana",
    "state_code": "36"
  },
  {
    "city": "Khanapur (AP)",
    "lat": 15.639879,
    "lon": 74.508892,
    "state": "Andhra Pradesh",
    "state_code": "28"
  },
  {
    "city": "Kodangal",
    "lat": 17.105988,
    "lon": 77.628693,
    "state": "Andhra Pradesh",
    "state_code": "28"
  },
  {
    "city": "Koduru",
    "lat": 13.8692,
    "lon": 77.7298,
    "state": "Andhra Pradesh",
    "state_code": "28"
  },
  {
    "city": "Koilkuntla",
    "lat": 15.2333,
    "lon": 78.3167,
    "state": "Andhra Pradesh",
    "state_code": "28"
  },
  {
    "city": "Kollapur",
    "lat": 16.106127,
    "lon": 78.319483,
    "state": "Andhra Pradesh",
    "state_code": "28"
  },
  {
    "city": "Kothagudem",
    "lat": 17.616827,
    "lon": 81.033056,
    "state": "Telangana",
    "state_code": "36"
  },
  {
    "city": "Kovvur",
    "lat": 17.017,
    "lon": 81.731,
    "state": "Andhra Pradesh",
    "state_code": "28"
  },
  {
    "city": "Krishna",
    "lat": 16.21277,
    "lon": 81.030696,
    "state": "Andhra Pradesh",
    "state_code": "28"
  },
  {
    "city": "Krosuru",
    "lat": 16.55,
    "lon": 80.1331,
    "state": "Andhra Pradesh",
    "state_code": "28"
  },
  {
    "city": "Kuppam",
    "lat": 12.75,
    "lon": 78.37,
    "state": "Andhra Pradesh",
    "state_code": "28"
  },
  {
    "city": "Kurnool",
    "lat": 15.83,
    "lon": 78.05,
    "state": "Andhra Pradesh",
    "state_code": "28"
  },
  {
    "city": "Madakasira",
    "lat": 13.9369,
    "lon": 77.2694,
    "state": "Andhra Pradesh",
    "state_code": "28"
  },
  {
    "city": "Madanapalli",
    "lat": 17.222258,
    "lon": 81.29782,
    "state": "Andhra Pradesh",
    "state_code": "28"
  },
  {
    "city": "Madhira",
    "lat": 16.923463,
    "lon": 80.362932,
    "state": "Telangana",
    "state_code": "36"
  },
  {
    "city": "Madnur",
    "lat": 18.5,
    "lon": 77.6333,
    "state": "Andhra Pradesh",
    "state_code": "28"
  },
  {
    "city": "Mahabubabad",
    "lat": 17.595749,
    "lon": 79.999922,
    "state": "Telangana",
    "state_code": "36"
  },
  {
    "city": "Mahabubnagar",
    "lat": 14.21755,
    "lon": 78.564122,
    "state": "Telangana",
    "state_code": "36"
  },
  {
    "city": "Mahadevapur",
    "lat": 14.762005,
    "lon": 78.874889,
    "state": "Andhra Pradesh",
    "state_code": "28"
  },
  {
    "city": "Makthal",
    "lat": 16.501082,
    "lon": 77.513317,
    "state": "Andhra Pradesh",
    "state_code": "28"
  },
  {
    "city": "Mancherial",
    "lat": 18.876179,
    "lon": 79.44497,
    "state": "Telangana",
    "state_code": "36"
  },
  {
    "city": "Mandapeta",
    "lat": 16.87,
    "lon": 81.93,
    "state": "Andhra Pradesh",
    "state_code": "28"
  },
  {
    "city": "Mangalagiri",
    "lat": 16.43,
    "lon": 80.55,
    "state": "Andhra Pradesh",
    "state_code": "28"
  },
  {
    "city": "Manthani",
    "lat": 18.65,
    "lon": 79.6667,
    "state": "Andhra Pradesh",
    "state_code": "28"
  },
  {
    "city": "Markapur",
    "lat": 15.73,
    "lon": 79.26,
    "state": "Andhra Pradesh",
    "state_code": "28"
  },
  {
    "city": "Marturu",
    "lat": 17.732238,
    "lon": 83.015891,
    "state": "Andhra Pradesh",
    "state_code": "28"
  },
  {
    "city": "Medachal",
    "lat": 14.762005,
    "lon": 78.874889,
    "state": "Andhra Pradesh",
    "state_code": "28"
  },
  {
    "city": "Medak",
    "lat": 18.046,
    "lon": 78.263,
    "state": "Telangana",
    "state_code": "36"
  },
  {
    "city": "Metpalli",
    "lat": 18.8492,
    "lon": 78.6261,
    "state": "Andhra Pradesh",
    "state_code": "28"
  },
  {
    "city": "Mriyalguda",
    "lat": 14.762005,
    "lon": 78.874889,
    "state": "Andhra Pradesh",
    "state_code": "28"
  },
  {
    "city": "Mulug",
    "lat": 18.191,
    "lon": 79.943,
    "state": "Andhra Pradesh",
    "state_code": "28"
  },
  {
    "city": "Mylavaram",
    "lat": 16.761204,
    "lon": 80.641817,
    "state": "Andhra Pradesh",
    "state_code": "28"
  },
  {
    "city": "Nagarkurnool",
    "lat": 14.762005,
    "lon": 78.874889,
    "state": "Telangana",
    "state_code": "36"
  },
  {
    "city": "Nalgonda",
    "lat": 17.0575,
    "lon": 79.2684,
    "state": "Telangana",
    "state_code": "36"
  },
  {
    "city": "Nallacheruvu",
    "lat": 13.987277,
    "lon": 78.186619,
    "state": "Andhra Pradesh",
    "state_code": "28"
  },
  {
    "city": "Nampalle",
    "lat": 13.415258,
    "lon": 79.002904,
    "state": "Andhra Pradesh",
    "state_code": "28"
  },
  {
    "city": "Nandigama",
    "lat": 16.7833,
    "lon": 80.3,
    "state": "Andhra Pradesh",
    "state_code": "28"
  },
  {
    "city": "Nandikotkur",
    "lat": 15.8667,
    "lon": 78.2667,
    "state": "Andhra Pradesh",
    "state_code": "28"
  },
  {
    "city": "Nandyal",
    "lat": 15.48,
    "lon": 78.48,
    "state": "Andhra Pradesh",
    "state_code": "28"
  },
  {
    "city": "Narasampet",
    "lat": 14.762005,
    "lon": 78.874889,
    "state": "Andhra Pradesh",
    "state_code": "28"
  },
  {
    "city": "Narasaraopet",
    "lat": 16.236,
    "lon": 80.0498,
    "state": "Andhra Pradesh",
    "state_code": "28"
  },
  {
    "city": "Narayanakhed",
    "lat": 14.762005,
    "lon": 78.874889,
    "state": "Andhra Pradesh",
    "state_code": "28"
  },
  {
    "city": "Narayanpet",
    "lat": 16.7445,
    "lon": 77.496,
    "state": "Telangana",
    "state_code": "36"
  },
  {
    "city": "Narsapur",
    "lat": 17.7374,
    "lon": 78.2805,
    "state": "Telangana",
    "state_code": "36"
  },
  {
    "city": "Narsipatnam",
    "lat": 17.665,
    "lon": 82.614,
    "state": "Andhra Pradesh",
    "state_code": "28"
  },
  {
    "city": "Nazvidu",
    "lat": 14.762005,
    "lon": 78.874889,
    "state": "Andhra Pradesh",
    "state_code": "28"
  },
  {
    "city": "Nelloe",
    "lat": 14.762005,
    "lon": 78.874889,
    "state": "Andhra Pradesh",
    "state_code": "28"
  },
  {
    "city": "Nellore",
    "lat": 14.4431,
    "lon": 79.9861,
    "state": "Andhra Pradesh",
    "state_code": "28"
  },
  {
    "city": "Nidamanur",
    "lat": 14.762005,
    "lon": 78.874889,
    "state": "Andhra Pradesh",
    "state_code": "28"
  },
  {
    "city": "Nirmal",
    "lat": 19.1,
    "lon": 78.35,
    "state": "Telangana",
    "state_code": "36"
  },
  {
    "city": "Nizamabad",
    "lat": 18.672,
    "lon": 78.094,
    "state": "Telangana",
    "state_code": "36"
  },
  {
    "city": "Nuguru",
    "lat": 14.762005,
    "lon": 78.874889,
    "state": "Andhra Pradesh",
    "state_code": "28"
  },
  {
    "city": "Ongole",
    "lat": 15.506,
    "lon": 80.049,
    "state": "Andhra Pradesh",
    "state_code": "28"
  },
  {
    "city": "Paderu",
    "lat": 18.079153,
    "lon": 82.663223,
    "state": "Andhra Pradesh",
    "state_code": "28"
  },
  {
    "city": "Pakala",
    "lat": 15.2694,
    "lon": 80.072,
    "state": "Andhra Pradesh",
    "state_code": "28"
  },
  {
    "city": "Palakonda",
    "lat": 18.60368,
    "lon": 83.755993,
    "state": "Andhra Pradesh",
    "state_code": "28"
  },
  {
    "city": "Paland",
    "lat": 14.762005,
    "lon": 78.874889,
    "state": "Andhra Pradesh",
    "state_code": "28"
  },
  {
    "city": "Palmaneru",
    "lat": 13.202239,
    "lon": 78.758447,
    "state": "Andhra Pradesh",
    "state_code": "28"
  },
  {
    "city": "Pamuru",
    "lat": 15.097,
    "lon": 79.409,
    "state": "Andhra Pradesh",
    "state_code": "28"
  },
  {
    "city": "Pargi",
    "lat": 17.1756,
    "lon": 77.8781,
    "state": "Andhra Pradesh",
    "state_code": "28"
  },
  {
    "city": "Parkal",
    "lat": 18.2,
    "lon": 79.7167,
    "state": "Andhra Pradesh",
    "state_code": "28"
  },
  {
    "city": "Parvathipuram",
    "lat": 18.783186,
    "lon": 83.427876,
    "state": "Andhra Pradesh",
    "state_code": "28"
  },
  {
    "city": "Pathapatnam",
    "lat": 18.71455,
    "lon": 84.082189,
    "state": "Andhra Pradesh",
    "state_code": "28"
  },
  {
    "city": "Pattikonda",
    "lat": 15.4,
    "lon": 77.5167,
    "state": "Andhra Pradesh",
    "state_code": "28"
  },
  {
    "city": "Peapalle",
    "lat": 15.234948,
    "lon": 77.739075,
    "state": "Andhra Pradesh",
    "state_code": "28"
  },
  {
    "city": "Peddapalli",
    "lat": 18.6162,
    "lon": 79.3832,
    "state": "Andhra Pradesh",
    "state_code": "28"
  },
  {
    "city": "Peddapuram",
    "lat": 18.0289,
    "lon": 79.7269,
    "state": "Andhra Pradesh",
    "state_code": "28"
  },
  {
    "city": "Penukonda",
    "lat": 14.085,
    "lon": 77.596,
    "state": "Andhra Pradesh",
    "state_code": "28"
  },
  {
    "city": "Piduguralla",
    "lat": 16.4793,
    "lon": 79.8863,
    "state": "Andhra Pradesh",
    "state_code": "28"
  },
  {
    "city": "Piler",
    "lat": 13.662599,
    "lon": 78.928078,
    "state": "Andhra Pradesh",
    "state_code": "28"
  },
  {
    "city": "Pithapuram",
    "lat": 17.1167,
    "lon": 82.2667,
    "state": "Andhra Pradesh",
    "state_code": "28"
  },
  {
    "city": "Podili",
    "lat": 15.604,
    "lon": 79.608,
    "state": "Andhra Pradesh",
    "state_code": "28"
  },
  {
    "city": "Polavaram",
    "lat": 17.2479,
    "lon": 81.6432,
    "state": "Andhra Pradesh",
    "state_code": "28"
  },
  {
    "city": "Prakasam",
    "lat": 15.664264,
    "lon": 79.4733,
    "state": "Andhra Pradesh",
    "state_code": "28"
  },
  {
    "city": "Proddatur",
    "lat": 14.75,
    "lon": 78.55,
    "state": "Andhra Pradesh",
    "state_code": "28"
  },
  {
    "city": "Pulivendla",
    "lat": 14.4194,
    "lon": 78.225,
    "state": "Andhra Pradesh",
    "state_code": "28"
  },
  {
    "city": "Punganur",
    "lat": 13.323794,
    "lon": 78.672971,
    "state": "Andhra Pradesh",
    "state_code": "28"
  },
  {
    "city": "Putturu",
    "lat": 18.909235,
    "lon": 84.422643,
    "state": "Andhra Pradesh",
    "state_code": "28"
  },
  {
    "city": "Rajahmundri",
    "lat": 14.762005,
    "lon": 78.874889,
    "state": "Andhra Pradesh",
    "state_code": "28"
  },
  {
    "city": "Rajampeta",
    "lat": 17.128894,
    "lon": 81.721881,
    "state": "Andhra Pradesh",
    "state_code": "28"
  },
  {
    "city": "Ramachandrapuram",
    "lat": 16.5689,
    "lon": 81.6645,
    "state": "Andhra Pradesh",
    "state_code": "28"
  },
  {
    "city": "Ramannapet",
    "lat": 17.284163,
    "lon": 79.085997,
    "state": "Andhra Pradesh",
    "state_code": "28"
  },
  {
    "city": "Rampachodavaram",
    "lat": 17.439828,
    "lon": 81.775235,
    "state": "Andhra Pradesh",
    "state_code": "28"
  },
  {
    "city": "Rangareddy",
    "lat": 14.762005,
    "lon": 78.874889,
    "state": "Andhra Pradesh",
    "state_code": "28"
  },
  {
    "city": "Rapur",
    "lat": 14.2015,
    "lon": 79.5351,
    "state": "Andhra Pradesh",
    "state_code": "28"
  },
  {
    "city": "Rayachoti",
    "lat": 14.0583,
    "lon": 78.7517,
    "state": "Andhra Pradesh",
    "state_code": "28"
  },
  {
    "city": "Rayadurg",
    "lat": 14.704258,
    "lon": 76.853519,
    "state": "Andhra Pradesh",
    "state_code": "28"
  },
  {
    "city": "Razole",
    "lat": 16.4743,
    "lon": 81.8402,
    "state": "Andhra Pradesh",
    "state_code": "28"
  },
  {
    "city": "Repalle",
    "lat": 16.0172,
    "lon": 80.8294,
    "state": "Andhra Pradesh",
    "state_code": "28"
  },
  {
    "city": "Saluru",
    "lat": 18.517553,
    "lon": 83.205039,
    "state": "Andhra Pradesh",
    "state_code": "28"
  },
  {
    "city": "Sangareddy",
    "lat": 17.615515,
    "lon": 78.081722,
    "state": "Telangana",
    "state_code": "36"
  },
  {
    "city": "Sathupalli",
    "lat": 14.762005,
    "lon": 78.874889,
    "state": "Andhra Pradesh",
    "state_code": "28"
  },
  {
    "city": "Sattenapalle",
    "lat": 16.3962,
    "lon": 80.1497,
    "state": "Andhra Pradesh",
    "state_code": "28"
  },
  {
    "city": "Satyavedu",
    "lat": 13.437,
    "lon": 79.956,
    "state": "Andhra Pradesh",
    "state_code": "28"
  },
  {
    "city": "Shadnagar",
    "lat": 17.06717,
    "lon": 78.204595,
    "state": "Andhra Pradesh",
    "state_code": "28"
  },
  {
    "city": "Siddavattam",
    "lat": 14.762005,
    "lon": 78.874889,
    "state": "Andhra Pradesh",
    "state_code": "28"
  },
  {
    "city": "Siddipet",
    "lat": 18.1019,
    "lon": 78.8519,
    "state": "Telangana",
    "state_code": "36"
  },
  {
    "city": "Sileru",
    "lat": 18.048094,
    "lon": 82.03518,
    "state": "Andhra Pradesh",
    "state_code": "28"
  },
  {
    "city": "Sircilla",
    "lat": 18.389757,
    "lon": 78.808597,
    "state": "Telangana",
    "state_code": "36"
  },
  {
    "city": "Sirpur Kagaznagar",
    "lat": 14.762005,
    "lon": 78.874889,
    "state": "Andhra Pradesh",
    "state_code": "28"
  },
  {
    "city": "Sodam",
    "lat": 13.547769,
    "lon": 78.907172,
    "state": "Andhra Pradesh",
    "state_code": "28"
  },
  {
    "city": "Sompeta",
    "lat": 18.93,
    "lon": 84.6,
    "state": "Andhra Pradesh",
    "state_code": "28"
  },
  {
    "city": "Srikakulam",
    "lat": 18.294931,
    "lon": 83.893884,
    "state": "Andhra Pradesh",
    "state_code": "28"
  },
  {
    "city": "Srikalahasthi",
    "lat": 13.749035,
    "lon": 79.688517,
    "state": "Andhra Pradesh",
    "state_code": "28"
  },
  {
    "city": "Srisailam",
    "lat": 16.073781,
    "lon": 78.872707,
    "state": "Andhra Pradesh",
    "state_code": "28"
  },
  {
    "city": "Srungavarapukota",
    "lat": 18.1167,
    "lon": 83.1667,
    "state": "Andhra Pradesh",
    "state_code": "28"
  },
  {
    "city": "Sudhimalla",
    "lat": 14.762005,
    "lon": 78.874889,
    "state": "Andhra Pradesh",
    "state_code": "28"
  },
  {
    "city": "Tadepalligudem",
    "lat": 16.810244,
    "lon": 81.526592,
    "state": "Andhra Pradesh",
    "state_code": "28"
  },
  {
    "city": "Tadipatri",
    "lat": 14.906956,
    "lon": 78.009707,
    "state": "Andhra Pradesh",
    "state_code": "28"
  },
  {
    "city": "Tanduru",
    "lat": 14.576034,
    "lon": 78.280685,
    "state": "Andhra Pradesh",
    "state_code": "28"
  },
  {
    "city": "Tanuku",
    "lat": 16.7566,
    "lon": 81.677,
    "state": "Andhra Pradesh",
    "state_code": "28"
  },
  {
    "city": "Tekkali",
    "lat": 18.6057,
    "lon": 84.2355,
    "state": "Andhra Pradesh",
    "state_code": "28"
  },
  {
    "city": "Tenali",
    "lat": 16.239,
    "lon": 80.645,
    "state": "Andhra Pradesh",
    "state_code": "28"
  },
  {
    "city": "Thungaturthy",
    "lat": 14.762005,
    "lon": 78.874889,
    "state": "Andhra Pradesh",
    "state_code": "28"
  },
  {
    "city": "Tirivuru",
    "lat": 14.762005,
    "lon": 78.874889,
    "state": "Andhra Pradesh",
    "state_code": "28"
  },
  {
    "city": "Tirupathi",
    "lat": 16.954528,
    "lon": 81.256569,
    "state": "Andhra Pradesh",
    "state_code": "28"
  },
  {
    "city": "Tuni",
    "lat": 17.35,
    "lon": 82.55,
    "state": "Andhra Pradesh",
    "state_code": "28"
  },
  {
    "city": "Udaygiri",
    "lat": 14.762005,
    "lon": 78.874889,
    "state": "Andhra Pradesh",
    "state_code": "28"
  },
  {
    "city": "Ulvapadu",
    "lat": 15.167624,
    "lon": 80.007337,
    "state": "Andhra Pradesh",
    "state_code": "28"
  },
  {
    "city": "Uravakonda",
    "lat": 14.95,
    "lon": 77.27,
    "state": "Andhra Pradesh",
    "state_code": "28"
  },
  {
    "city": "Utnor",
    "lat": 14.762005,
    "lon": 78.874889,
    "state": "Andhra Pradesh",
    "state_code": "28"
  },
  {
    "city": "V.R. Puram",
    "lat": 10.310617,
    "lon": 76.317681,
    "state": "Andhra Pradesh",
    "state_code": "28"
  },
  {
    "city": "Vaimpalli",
    "lat": 14.762005,
    "lon": 78.874889,
    "state": "Andhra Pradesh",
    "state_code": "28"
  },
  {
    "city": "Vayalpad",
    "lat": 13.65,
    "lon": 78.6333,
    "state": "Andhra Pradesh",
    "state_code": "28"
  },
  {
    "city": "Venkatgiri",
    "lat": 14.762005,
    "lon": 78.874889,
    "state": "Andhra Pradesh",
    "state_code": "28"
  },
  {
    "city": "Vijayawada",
    "lat": 16.511531,
    "lon": 80.616047,
    "state": "Andhra Pradesh",
    "state_code": "28"
  },
  {
    "city": "Vinjamuru",
    "lat": 14.762005,
    "lon": 78.874889,
    "state": "Andhra Pradesh",
    "state_code": "28"
  },
  {
    "city": "Vinukonda",
    "lat": 16.05,
    "lon": 79.75,
    "state": "Andhra Pradesh",
    "state_code": "28"
  },
  {
    "city": "Visakhapatnam",
    "lat": 17.693553,
    "lon": 83.29213,
    "state": "Andhra Pradesh",
    "state_code": "28"
  },
  {
    "city": "Vizayanagaram",
    "lat": 14.762005,
    "lon": 78.874889,
    "state": "Andhra Pradesh",
    "state_code": "28"
  },
  {
    "city": "Vizianagaram",
    "lat": 18.1159,
    "lon": 83.406,
    "state": "Andhra Pradesh",
    "state_code": "28"
  },
  {
    "city": "Vuyyuru",
    "lat": 16.3667,
    "lon": 80.85,
    "state": "Andhra Pradesh",
    "state_code": "28"
  },
  {
    "city": "Wanaparthy",
    "lat": 16.36178,
    "lon": 78.061084,
    "state": "Telangana",
    "state_code": "36"
  },
  {
    "city": "Warangal",
    "lat": 17.9689,
    "lon": 79.5941,
    "state": "Telangana",
    "state_code": "36"
  },
  {
    "city": "Wardhannapet",
    "lat": 17.773407,
    "lon": 79.575406,
    "state": "Andhra Pradesh",
    "state_code": "28"
  },
  {
    "city": "Yelamanchili",
    "lat": 16.477879,
    "lon": 81.784259,
    "state": "Andhra Pradesh",
    "state_code": "28"
  },
  {
    "city": "Yelavaram",
    "lat": 14.762005,
    "lon": 78.874889,
    "state": "Andhra Pradesh",
    "state_code": "28"
  },
  {
    "city": "Yeleswaram",
    "lat": 17.287269,
    "lon": 82.105236,
    "state": "Andhra Pradesh",
    "state_code": "28"
  },
  {
    "city": "Yellandu",
    "lat": 17.6,
    "lon": 80.33,
    "state": "Telangana",
    "state_code": "36"
  },
  {
    "city": "Yellanuru",
    "lat": 14.762005,
    "lon": 78.874889,
    "state": "Andhra Pradesh",
    "state_code": "28"
  },
  {
    "city": "Yellareddy",
    "lat": 14.762005,
    "lon": 78.874889,
    "state": "Telangana",
    "state_code": "36"
  },
  {
    "city": "Yerragondapalem",
    "lat": 15.999327,
    "lon": 79.291049,
    "state": "Andhra Pradesh",
    "state_code": "28"
  },
  {
    "city": "Zahirabad",
    "lat": 17.6814,
    "lon": 77.6074,
    "state": "Telangana",
    "state_code": "36"
  },
  {
    "city": "Along",
    "lat": 28.1698,
    "lon": 94.79854,
    "state": "Arunachal Pradesh",
    "state_code": "12"
  },
  {
    "city": "Anini",
    "lat": 28.796932,
    "lon": 95.904479,
    "state": "Arunachal Pradesh",
    "state_code": "12"
  },
  {
    "city": "Anjaw",
    "lat": 28.11143,
    "lon": 96.827,
    "state": "Arunachal Pradesh",
    "state_code": "12"
  },
  {
    "city": "Bameng",
    "lat": 27.54352,
    "lon": 92.948341,
    "state": "Arunachal Pradesh",
    "state_code": "12"
  },
  {
    "city": "Basar",
    "lat": 27.983118,
    "lon": 94.687942,
    "state": "Arunachal Pradesh",
    "state_code": "12"
  },
  {
    "city": "Changlang",
    "lat": 27.272007,
    "lon": 96.065526,
    "state": "Arunachal Pradesh",
    "state_code": "12"
  },
  {
    "city": "Dibang Valley",
    "lat": 28.829104,
    "lon": 95.95541,
    "state": "Arunachal Pradesh",
    "state_code": "12"
  },
  {
    "city": "Dirang",
    "lat": 27.36008,
    "lon": 92.24121,
    "state": "Arunachal Pradesh",
    "state_code": "12"
  },
  {
    "city": "Hayuliang",
    "lat": 28.075932,
    "lon": 96.542957,
    "state": "Arunachal Pradesh",
    "state_code": "12"
  },
  {
    "city": "Huri",
    "lat": 28.10951,
    "lon": 93.304597,
    "state": "Arunachal Pradesh",
    "state_code": "12"
  },
  {
    "city": "Itanagar",
    "lat": 27.1,
    "lon": 93.62,
    "state": "Arunachal Pradesh",
    "state_code": "12"
  },
  {
    "city": "Jairampur",
    "lat": 27.356897,
    "lon": 96.013415,
    "state": "Arunachal Pradesh",
    "state_code": "12"
  },
  {
    "city": "Kameng",
    "lat": 24.862686,
    "lon": 93.885298,
    "state": "Arunachal Pradesh",
    "state_code": "12"
  },
  {
    "city": "Khonsa",
    "lat": 26.99101,
    "lon": 95.506107,
    "state": "Arunachal Pradesh",
    "state_code": "12"
  },
  {
    "city": "Kurung Kumey",
    "lat": 27.986368,
    "lon": 93.157835,
    "state": "Arunachal Pradesh",
    "state_code": "12"
  },
  {
    "city": "Lohit",
    "lat": 28.035016,
    "lon": 96.171352,
    "state": "Arunachal Pradesh",
    "state_code": "12"
  },
  {
    "city": "Lower Dibang Valley",
    "lat": 28.214956,
    "lon": 95.878774,
    "state": "Arunachal Pradesh",
    "state_code": "12"
  },
  {
    "city": "Lower Subansiri",
    "lat": 27.8,
    "lon": 93.6,
    "state": "Arunachal Pradesh",
    "state_code": "12"
  },
  {
    "city": "Mariyang",
    "lat": 28.487576,
    "lon": 95.217173,
    "state": "Arunachal Pradesh",
    "state_code": "12"
  },
  {
    "city": "Mechuka",
    "lat": 28.598745,
    "lon": 94.133583,
    "state": "Arunachal Pradesh",
    "state_code": "12"
  },
  {
    "city": "Miao",
    "lat": 27.487302,
    "lon": 96.206339,
    "state": "Arunachal Pradesh",
    "state_code": "12"
  },
  {
    "city": "Pangin",
    "lat": 28.211261,
    "lon": 94.989599,
    "state": "Arunachal Pradesh",
    "state_code": "12"
  },
  {
    "city": "Papum Pare",
    "lat": 27.286367,
    "lon": 93.618772,
    "state": "Arunachal Pradesh",
    "state_code": "12"
  },
  {
    "city": "Roing",
    "lat": 28.136847,
    "lon": 95.843082,
    "state": "Arunachal Pradesh",
    "state_code": "12"
  },
  {
    "city": "Sagalee",
    "lat": 27.251467,
    "lon": 93.491911,
    "state": "Arunachal Pradesh",
    "state_code": "12"
  },
  {
    "city": "Seppa",
    "lat": 27.359418,
    "lon": 93.04061,
    "state": "Arunachal Pradesh",
    "state_code": "12"
  },
  {
    "city": "Siang",
    "lat": 28.14011,
    "lon": 95.14847,
    "state": "Arunachal Pradesh",
    "state_code": "12"
  },
  {
    "city": "Tali",
    "lat": 28.02082,
    "lon": 93.75198,
    "state": "Arunachal Pradesh",
    "state_code": "12"
  },
  {
    "city": "Taliha",
    "lat": 28.233476,
    "lon": 94.147355,
    "state": "Arunachal Pradesh",
    "state_code": "12"
  },
  {
    "city": "Tawang",
    "lat": 27.587919,
    "lon": 91.863733,
    "state": "Arunachal Pradesh",
    "state_code": "12"
  },
  {
    "city": "Tezu",
    "lat": 27.92,
    "lon": 96.17,
    "state": "Arunachal Pradesh",
    "state_code": "12"
  },
  {
    "city": "Tirap",
    "lat": 27.030169,
    "lon": 95.497918,
    "state": "Arunachal Pradesh",
    "state_code": "12"
  },
  {
    "city": "Tuting",
    "lat": 28.992263,
    "lon": 94.892478,
    "state": "Arunachal Pradesh",
    "state_code": "12"
  },
  {
    "city": "Upper Siang",
    "lat": 28.731205,
    "lon": 95.037732,
    "state": "Arunachal Pradesh",
    "state_code": "12"
  },
  {
    "city": "Upper Subansiri",
    "lat": 28.3,
    "lon": 94,
    "state": "Arunachal Pradesh",
    "state_code": "12"
  },
  {
    "city": "Abhayapuri",
    "lat": 26.3225,
    "lon": 90.6853,
    "state": "Assam",
    "state_code": "18"
  },
  {
    "city": "Barama",
    "lat": 26.525807,
    "lon": 91.350316,
    "state": "Assam",
    "state_code": "18"
  },
  {
    "city": "Barpeta Road",
    "lat": 26.502126,
    "lon": 90.964571,
    "state": "Assam",
    "state_code": "18"
  },
  {
    "city": "Bijni",
    "lat": 26.4959,
    "lon": 90.703,
    "state": "Assam",
    "state_code": "18"
  },
  {
    "city": "Bilasipara",
    "lat": 26.2328,
    "lon": 90.2341,
    "state": "Assam",
    "state_code": "18"
  },
  {
    "city": "Bokajan",
    "lat": 26.023509,
    "lon": 93.770701,
    "state": "Assam",
    "state_code": "18"
  },
  {
    "city": "Bokakhat",
    "lat": 26.6402,
    "lon": 93.6005,
    "state": "Assam",
    "state_code": "18"
  },
  {
    "city": "Boko",
    "lat": 25.975328,
    "lon": 91.227603,
    "state": "Assam",
    "state_code": "18"
  },
  {
    "city": "Bongaigaon",
    "lat": 26.4769,
    "lon": 90.5583,
    "state": "Assam",
    "state_code": "18"
  },
  {
    "city": "Cachar",
    "lat": 24.75864,
    "lon": 92.881665,
    "state": "Assam",
    "state_code": "18"
  },
  {
    "city": "Cachar Hills",
    "lat": 25.5,
    "lon": 93,
    "state": "Assam",
    "state_code": "18"
  },
  {
    "city": "Darrang",
    "lat": 26.437348,
    "lon": 92.004714,
    "state": "Assam",
    "state_code": "18"
  },
  {
    "city": "Dhakuakhana",
    "lat": 27.383572,
    "lon": 94.572187,
    "state": "Assam",
    "state_code": "18"
  },
  {
    "city": "Dhemaji",
    "lat": 27.4833,
    "lon": 94.5833,
    "state": "Assam",
    "state_code": "18"
  },
  {
    "city": "Dhubri",
    "lat": 26.019642,
    "lon": 89.991393,
    "state": "Assam",
    "state_code": "18"
  },
  {
    "city": "Dibrugarh",
    "lat": 27.48,
    "lon": 95.0,
    "state": "Assam",
    "state_code": "18"
  },
  {
    "city": "Digboi",
    "lat": 27.3932,
    "lon": 95.6184,
    "state": "Assam",
    "state_code": "18"
  },
  {
    "city": "Diphu",
    "lat": 25.83,
    "lon": 93.43,
    "state": "Assam",
    "state_code": "18"
  },
  {
    "city": "Goalpara",
    "lat": 26.17,
    "lon": 90.62,
    "state": "Assam",
    "state_code": "18"
  },
  {
    "city": "Gohpur",
    "lat": 26.8818,
    "lon": 93.6156,
    "state": "Assam",
    "state_code": "18"
  },
  {
    "city": "Golaghat",
    "lat": 26.52,
    "lon": 93.97,
    "state": "Assam",
    "state_code": "18"
  },
  {
    "city": "Guwahati",
    "lat": 26.1722,
    "lon": 91.7458,
    "state": "Assam",
    "state_code": "18"
  },
  {
    "city": "Hailakandi",
    "lat": 24.6839,
    "lon": 92.561,
    "state": "Assam",
    "state_code": "18"
  },
  {
    "city": "Hajo",
    "lat": 26.249189,
    "lon": 91.526528,
    "state": "Assam",
    "state_code": "18"
  },
  {
    "city": "Halflong",
    "lat": 26.272528,
    "lon": 92.877434,
    "state": "Assam",
    "state_code": "18"
  },
  {
    "city": "Hojai",
    "lat": 26.0,
    "lon": 92.87,
    "state": "Assam",
    "state_code": "18"
  },
  {
    "city": "Howraghat",
    "lat": 26.112634,
    "lon": 93.035884,
    "state": "Assam",
    "state_code": "18"
  },
  {
    "city": "Jorhat",
    "lat": 26.75,
    "lon": 94.22,
    "state": "Assam",
    "state_code": "18"
  },
  {
    "city": "Kamrup",
    "lat": 26.146886,
    "lon": 91.22274,
    "state": "Assam",
    "state_code": "18"
  },
  {
    "city": "Karbi Anglong",
    "lat": 26,
    "lon": 93.5,
    "state": "Assam",
    "state_code": "18"
  },
  {
    "city": "Karimganj",
    "lat": 24.87,
    "lon": 92.35,
    "state": "Assam",
    "state_code": "18"
  },
  {
    "city": "Kokrajhar",
    "lat": 26.4,
    "lon": 90.27,
    "state": "Assam",
    "state_code": "18"
  },
  {
    "city": "Lakhimpur",
    "lat": 27.236211,
    "lon": 94.103876,
    "state": "Assam",
    "state_code": "18"
  },
  {
    "city": "Maibong",
    "lat": 25.302128,
    "lon": 93.133292,
    "state": "Assam",
    "state_code": "18"
  },
  {
    "city": "Majuli",
    "lat": 27.021953,
    "lon": 94.327423,
    "state": "Assam",
    "state_code": "18"
  },
  {
    "city": "Mangaldoi",
    "lat": 26.436303,
    "lon": 92.030657,
    "state": "Assam",
    "state_code": "18"
  },
  {
    "city": "Mariani",
    "lat": 26.67,
    "lon": 94.33,
    "state": "Assam",
    "state_code": "18"
  },
  {
    "city": "Marigaon",
    "lat": 26.251491,
    "lon": 92.344384,
    "state": "Assam",
    "state_code": "18"
  },
  {
    "city": "Moranhat",
    "lat": 27.180086,
    "lon": 94.91606,
    "state": "Assam",
    "state_code": "18"
  },
  {
    "city": "Morigaon",
    "lat": 26.248606,
    "lon": 92.338795,
    "state": "Assam",
    "state_code": "18"
  },
  {
    "city": "Nagaon",
    "lat": 26.348224,
    "lon": 92.685822,
    "state": "Assam",
    "state_code": "18"
  },
  {
    "city": "Nalbari",
    "lat": 26.445,
    "lon": 91.44,
    "state": "Assam",
    "state_code": "18"
  },
  {
    "city": "Rangapara",
    "lat": 26.8377,
    "lon": 92.6688,
    "state": "Assam",
    "state_code": "18"
  },
  {
    "city": "Sadiya",
    "lat": 27.843478,
    "lon": 95.673194,
    "state": "Assam",
    "state_code": "18"
  },
  {
    "city": "Sibsagar",
    "lat": 26.9844,
    "lon": 94.6375,
    "state": "Assam",
    "state_code": "18"
  },
  {
    "city": "Silchar",
    "lat": 24.82,
    "lon": 92.8,
    "state": "Assam",
    "state_code": "18"
  },
  {
    "city": "Sivasagar",
    "lat": 26.983494,
    "lon": 94.639423,
    "state": "Assam",
    "state_code": "18"
  },
  {
    "city": "Sonitpur",
    "lat": 26.767771,
    "lon": 92.701409,
    "state": "Assam",
    "state_code": "18"
  },
  {
    "city": "Tezpur",
    "lat": 26.63,
    "lon": 92.8,
    "state": "Assam",
    "state_code": "18"
  },
  {
    "city": "Tinsukia",
    "lat": 27.5,
    "lon": 95.367,
    "state": "Assam",
    "state_code": "18"
  },
  {
    "city": "Udalguri",
    "lat": 26.7537,
    "lon": 92.1021,
    "state": "Assam",
    "state_code": "18"
  },
  {
    "city": "Adhaura",
    "lat": 24.697168,
    "lon": 83.609605,
    "state": "Bihar",
    "state_code": "10"
  },
  {
    "city": "Amarpur",
    "lat": 25.0397,
    "lon": 86.9025,
    "state": "Bihar",
    "state_code": "10"
  },
  {
    "city": "Araria",
    "lat": 26.15,
    "lon": 87.52,
    "state": "Bihar",
    "state_code": "10"
  },
  {
    "city": "Areraj",
    "lat": 26.5527,
    "lon": 84.6726,
    "state": "Bihar",
    "state_code": "10"
  },
  {
    "city": "Arrah",
    "lat": 25.5514,
    "lon": 84.6603,
    "state": "Bihar",
    "state_code": "10"
  },
  {
    "city": "Arwal",
    "lat": 25.2442,
    "lon": 84.6631,
    "state": "Bihar",
    "state_code": "10"
  },
  {
    "city": "Aurangabad",
    "lat": 24.7,
    "lon": 84.35,
    "state": "Maharashtra",
    "state_code": "10"
  },
  {
    "city": "Bagaha",
    "lat": 27.0992,
    "lon": 84.09,
    "state": "Bihar",
    "state_code": "10"
  },
  {
    "city": "Banka",
    "lat": 24.881083,
    "lon": 86.919769,
    "state": "Bihar",
    "state_code": "10"
  },
  {
    "city": "Banmankhi",
    "lat": 25.890613,
    "lon": 87.194459,
    "state": "Bihar",
    "state_code": "10"
  },
  {
    "city": "Barauni",
    "lat": 25.467642,
    "lon": 85.990414,
    "state": "Bihar",
    "state_code": "10"
  },
  {
    "city": "Barh",
    "lat": 25.471135,
    "lon": 85.706067,
    "state": "Bihar",
    "state_code": "10"
  },
  {
    "city": "Barosi",
    "lat": 25.196253,
    "lon": 85.518355,
    "state": "Bihar",
    "state_code": "10"
  },
  {
    "city": "Begusarai",
    "lat": 25.42,
    "lon": 86.13,
    "state": "Bihar",
    "state_code": "10"
  },
  {
    "city": "Benipatti",
    "lat": 26.443352,
    "lon": 85.902705,
    "state": "Bihar",
    "state_code": "10"
  },
  {
    "city": "Benipur",
    "lat": 26.062344,
    "lon": 86.144003,
    "state": "Bihar",
    "state_code": "10"
  },
  {
    "city": "Bettiah",
    "lat": 26.8014,
    "lon": 84.5028,
    "state": "Bihar",
    "state_code": "10"
  },
  {
    "city": "Bhabhua",
    "lat": 25.05,
    "lon": 83.62,
    "state": "Bihar",
    "state_code": "10"
  },
  {
    "city": "Bhagalpur",
    "lat": 25.25,
    "lon": 87.0,
    "state": "Bihar",
    "state_code": "10"
  },
  {
    "city": "Bhojpur",
    "lat": 25.450118,
    "lon": 84.563519,
    "state": "Bihar",
    "state_code": "10"
  },
  {
    "city": "Bidupur",
    "lat": 25.650802,
    "lon": 85.323676,
    "state": "Bihar",
    "state_code": "10"
  },
  {
    "city": "Biharsharif",
    "lat": 25.203512,
    "lon": 85.526091,
    "state": "Bihar",
    "state_code": "10"
  },
  {
    "city": "Bikram",
    "lat": 25.447009,
    "lon": 84.862903,
    "state": "Bihar",
    "state_code": "10"
  },
  {
    "city": "Bikramganj",
    "lat": 25.2107,
    "lon": 84.2551,
    "state": "Bihar",
    "state_code": "10"
  },
  {
    "city": "Birpur",
    "lat": 26.5767,
    "lon": 86.0379,
    "state": "Bihar",
    "state_code": "10"
  },
  {
    "city": "Buxar",
    "lat": 25.5605,
    "lon": 83.9805,
    "state": "Bihar",
    "state_code": "10"
  },
  {
    "city": "Chakai",
    "lat": 26.0884,
    "lon": 87.6154,
    "state": "Bihar",
    "state_code": "10"
  },
  {
    "city": "Champaran",
    "lat": 26.583333,
    "lon": 84.833333,
    "state": "Bihar",
    "state_code": "10"
  },
  {
    "city": "Chapara",
    "lat": 26.172971,
    "lon": 85.33065,
    "state": "Bihar",
    "state_code": "10"
  },
  {
    "city": "Dalsinghsarai",
    "lat": 25.668267,
    "lon": 85.837029,
    "state": "Bihar",
    "state_code": "10"
  },
  {
    "city": "Danapur",
    "lat": 25.63589,
    "lon": 85.047404,
    "state": "Bihar",
    "state_code": "10"
  },
  {
    "city": "Darbhanga",
    "lat": 26.17,
    "lon": 85.9,
    "state": "Bihar",
    "state_code": "10"
  },
  {
    "city": "Daudnagar",
    "lat": 25.03,
    "lon": 84.4,
    "state": "Bihar",
    "state_code": "10"
  },
  {
    "city": "Dhaka",
    "lat": 26.72,
    "lon": 85.33,
    "state": "Bihar",
    "state_code": "10"
  },
  {
    "city": "Dhamdaha",
    "lat": 25.7435,
    "lon": 87.1835,
    "state": "Bihar",
    "state_code": "10"
  },
  {
    "city": "Dumraon",
    "lat": 25.5526,
    "lon": 84.1515,
    "state": "Bihar",
    "state_code": "10"
  },
  {
    "city": "Ekma",
    "lat": 26.0541,
    "lon": 86.6121,
    "state": "Bihar",
    "state_code": "10"
  },
  {
    "city": "Forbesganj",
    "lat": 26.3,
    "lon": 87.265,
    "state": "Bihar",
    "state_code": "10"
  },
  {
    "city": "Gaya",
    "lat": 24.75,
    "lon": 85.01,
    "state": "Bihar",
    "state_code": "10"
  },
  {
    "city": "Gogri",
    "lat": 25.4154,
    "lon": 86.6477,
    "state": "Bihar",
    "state_code": "10"
  },
  {
    "city": "Gopalganj",
    "lat": 26.47,
    "lon": 84.43,
    "state": "Madhya Pradesh",
    "state_code": "10"
  },
  {
    "city": "H.Kharagpur",
    "lat": 25.122362,
    "lon": 86.55216,
    "state": "Bihar",
    "state_code": "10"
  },
  {
    "city": "Hajipur",
    "lat": 25.6925,
    "lon": 85.2084,
    "state": "Bihar",
    "state_code": "10"
  },
  {
    "city": "Hathua",
    "lat": 26.363101,
    "lon": 84.297561,
    "state": "Bihar",
    "state_code": "10"
  },
  {
    "city": "Hilsa",
    "lat": 25.32,
    "lon": 85.28,
    "state": "Bihar",
    "state_code": "10"
  },
  {
    "city": "Imamganj",
    "lat": 24.454592,
    "lon": 84.585543,
    "state": "Bihar",
    "state_code": "10"
  },
  {
    "city": "Jahanabad",
    "lat": 26.103622,
    "lon": 80.353155,
    "state": "Bihar",
    "state_code": "10"
  },
  {
    "city": "Jainagar",
    "lat": 26.588249,
    "lon": 86.140281,
    "state": "Bihar",
    "state_code": "10"
  },
  {
    "city": "Jamshedpur",
    "lat": 22.801519,
    "lon": 86.202958,
    "state": "Jharkhand",
    "state_code": "10"
  },
  {
    "city": "Jamui",
    "lat": 24.9278,
    "lon": 86.2239,
    "state": "Bihar",
    "state_code": "10"
  },
  {
    "city": "Jehanabad",
    "lat": 25.211338,
    "lon": 84.98737,
    "state": "Bihar",
    "state_code": "10"
  },
  {
    "city": "Jhajha",
    "lat": 24.76979,
    "lon": 86.377563,
    "state": "Bihar",
    "state_code": "10"
  },
  {
    "city": "Jhanjharpur",
    "lat": 26.2647,
    "lon": 86.2799,
    "state": "Bihar",
    "state_code": "10"
  },
  {
    "city": "Kahalgaon",
    "lat": 25.262318,
    "lon": 87.230338,
    "state": "Bihar",
    "state_code": "10"
  },
  {
    "city": "Kaimur (Bhabua)",
    "lat": 25.026223,
    "lon": 83.577876,
    "state": "Bihar",
    "state_code": "10"
  },
  {
    "city": "Katihar",
    "lat": 25.53,
    "lon": 87.58,
    "state": "Bihar",
    "state_code": "10"
  },
  {
    "city": "Katoria",
    "lat": 24.745441,
    "lon": 86.718917,
    "state": "Bihar",
    "state_code": "10"
  },
  {
    "city": "Khagaria",
    "lat": 25.5022,
    "lon": 86.4671,
    "state": "Bihar",
    "state_code": "10"
  },
  {
    "city": "Kishanganj",
    "lat": 25.6844,
    "lon": 86.9509,
    "state": "Rajasthan",
    "state_code": "10"
  },
  {
    "city": "Korha",
    "lat": 25.620876,
    "lon": 87.400638,
    "state": "Bihar",
    "state_code": "10"
  },
  {
    "city": "Lakhisarai",
    "lat": 25.176771,
    "lon": 86.093177,
    "state": "Bihar",
    "state_code": "10"
  },
  {
    "city": "Madhepura",
    "lat": 25.917414,
    "lon": 86.791591,
    "state": "Bihar",
    "state_code": "10"
  },
  {
    "city": "Madhubani",
    "lat": 26.3272,
    "lon": 87.016,
    "state": "Bihar",
    "state_code": "10"
  },
  {
    "city": "Maharajganj",
    "lat": 26.108443,
    "lon": 84.502887,
    "state": "Uttar Pradesh",
    "state_code": "10"
  },
  {
    "city": "Mahua",
    "lat": 25.814078,
    "lon": 85.397895,
    "state": "Bihar",
    "state_code": "10"
  },
  {
    "city": "Mairwa",
    "lat": 26.2322,
    "lon": 84.1635,
    "state": "Bihar",
    "state_code": "10"
  },
  {
    "city": "Masrakh",
    "lat": 26.1054,
    "lon": 84.8026,
    "state": "Bihar",
    "state_code": "10"
  },
  {
    "city": "Mohania",
    "lat": 25.1692,
    "lon": 83.6192,
    "state": "Bihar",
    "state_code": "10"
  },
  {
    "city": "Monghyr",
    "lat": 25.381,
    "lon": 86.465,
    "state": "Bihar",
    "state_code": "10"
  },
  {
    "city": "Motihari",
    "lat": 26.650689,
    "lon": 84.911465,
    "state": "Bihar",
    "state_code": "10"
  },
  {
    "city": "Motipur",
    "lat": 25.8159,
    "lon": 86.014,
    "state": "Bihar",
    "state_code": "10"
  },
  {
    "city": "Munger",
    "lat": 25.377352,
    "lon": 86.473104,
    "state": "Bihar",
    "state_code": "10"
  },
  {
    "city": "Muzaffarpur",
    "lat": 26.1225,
    "lon": 85.3906,
    "state": "Bihar",
    "state_code": "10"
  },
  {
    "city": "Nabinagar",
    "lat": 24.62,
    "lon": 84.12,
    "state": "Bihar",
    "state_code": "10"
  },
  {
    "city": "Nalanda",
    "lat": 25.211599,
    "lon": 85.448461,
    "state": "Bihar",
    "state_code": "10"
  },
  {
    "city": "Narkatiaganj",
    "lat": 27.102923,
    "lon": 84.464607,
    "state": "Bihar",
    "state_code": "10"
  },
  {
    "city": "Naugachia",
    "lat": 25.385773,
    "lon": 87.099762,
    "state": "Bihar",
    "state_code": "10"
  },
  {
    "city": "Nawada",
    "lat": 25.5037,
    "lon": 85.7325,
    "state": "Bihar",
    "state_code": "10"
  },
  {
    "city": "Pakridayal",
    "lat": 26.554362,
    "lon": 85.062203,
    "state": "Bihar",
    "state_code": "10"
  },
  {
    "city": "Patna",
    "lat": 25.594,
    "lon": 85.1376,
    "state": "Bihar",
    "state_code": "10"
  },
  {
    "city": "Phulparas",
    "lat": 26.3549,
    "lon": 86.4908,
    "state": "Bihar",
    "state_code": "10"
  },
  {
    "city": "Piro",
    "lat": 25.33,
    "lon": 84.42,
    "state": "Bihar",
    "state_code": "10"
  },
  {
    "city": "Pupri",
    "lat": 26.4708,
    "lon": 85.7031,
    "state": "Bihar",
    "state_code": "10"
  },
  {
    "city": "Purena",
    "lat": 22.188559,
    "lon": 78.51524,
    "state": "Bihar",
    "state_code": "10"
  },
  {
    "city": "Purnia",
    "lat": 25.77736,
    "lon": 87.473123,
    "state": "Bihar",
    "state_code": "10"
  },
  {
    "city": "Rafiganj",
    "lat": 24.82,
    "lon": 84.65,
    "state": "Bihar",
    "state_code": "10"
  },
  {
    "city": "Rajauli",
    "lat": 24.6449,
    "lon": 85.5003,
    "state": "Bihar",
    "state_code": "10"
  },
  {
    "city": "Ramnagar",
    "lat": 26.0773,
    "lon": 86.8387,
    "state": "Jammu & Kashmir",
    "state_code": "10"
  },
  {
    "city": "Raniganj",
    "lat": 26.085092,
    "lon": 87.235511,
    "state": "Bihar",
    "state_code": "10"
  },
  {
    "city": "Raxaul",
    "lat": 26.9833,
    "lon": 84.85,
    "state": "Bihar",
    "state_code": "10"
  },
  {
    "city": "Rohtas",
    "lat": 24.634271,
    "lon": 83.96395,
    "state": "Bihar",
    "state_code": "10"
  },
  {
    "city": "Rosera",
    "lat": 25.779837,
    "lon": 86.042544,
    "state": "Bihar",
    "state_code": "10"
  },
  {
    "city": "S.Bakhtiarpur",
    "lat": 26.39358,
    "lon": 89.189012,
    "state": "Bihar",
    "state_code": "10"
  },
  {
    "city": "Saharsa",
    "lat": 25.88,
    "lon": 86.6,
    "state": "Bihar",
    "state_code": "10"
  },
  {
    "city": "Samastipur",
    "lat": 25.8629,
    "lon": 85.7811,
    "state": "Bihar",
    "state_code": "10"
  },
  {
    "city": "Saran",
    "lat": 25.921445,
    "lon": 84.775973,
    "state": "Bihar",
    "state_code": "10"
  },
  {
    "city": "Sasaram",
    "lat": 24.95,
    "lon": 84.03,
    "state": "Bihar",
    "state_code": "10"
  },
  {
    "city": "Seikhpura",
    "lat": 25.51021,
    "lon": 86.441296,
    "state": "Bihar",
    "state_code": "10"
  },
  {
    "city": "Sheikhpura",
    "lat": 25.1403,
    "lon": 85.8508,
    "state": "Bihar",
    "state_code": "10"
  },
  {
    "city": "Sheohar",
    "lat": 26.52,
    "lon": 85.3,
    "state": "Bihar",
    "state_code": "10"
  },
  {
    "city": "Sherghati",
    "lat": 24.5617,
    "lon": 84.7953,
    "state": "Bihar",
    "state_code": "10"
  },
  {
    "city": "Sidhawalia",
    "lat": 25.813233,
    "lon": 84.723892,
    "state": "Bihar",
    "state_code": "10"
  },
  {
    "city": "Singhwara",
    "lat": 26.1842,
    "lon": 85.7368,
    "state": "Bihar",
    "state_code": "10"
  },
  {
    "city": "Sitamarhi",
    "lat": 26.6,
    "lon": 85.48,
    "state": "Bihar",
    "state_code": "10"
  },
  {
    "city": "Siwan",
    "lat": 26.22,
    "lon": 84.36,
    "state": "Bihar",
    "state_code": "10"
  },
  {
    "city": "Sonepur",
    "lat": 25.697765,
    "lon": 85.156951,
    "state": "Bihar",
    "state_code": "10"
  },
  {
    "city": "Supaul",
    "lat": 25.9469,
    "lon": 86.2497,
    "state": "Bihar",
    "state_code": "10"
  },
  {
    "city": "Thakurganj",
    "lat": 26.427636,
    "lon": 88.130029,
    "state": "Bihar",
    "state_code": "10"
  },
  {
    "city": "Triveniganj",
    "lat": 26.127038,
    "lon": 86.887279,
    "state": "Bihar",
    "state_code": "10"
  },
  {
    "city": "Vaishali",
    "lat": 25.74917,
    "lon": 85.397216,
    "state": "Bihar",
    "state_code": "10"
  },
  {
    "city": "Wazirganj",
    "lat": 24.800523,
    "lon": 85.238075,
    "state": "Bihar",
    "state_code": "10"
  },
  {
    "city": "Chandigarh",
    "lat": 30.75,
    "lon": 76.78,
    "state": "Punjab",
    "state_code": "04"
  },
  {
    "city": "Mani Marja",
    "lat": 30.71397,
    "lon": 76.83824,
    "state": "Chandigarh",
    "state_code": "04"
  },
  {
    "city": "Ambikapur",
    "lat": 23.12,
    "lon": 83.2,
    "state": "Chhattisgarh",
    "state_code": "22"
  },
  {
    "city": "Antagarh",
    "lat": 20.098971,
    "lon": 81.158073,
    "state": "Chhattisgarh",
    "state_code": "22"
  },
  {
    "city": "Arang",
    "lat": 21.198634,
    "lon": 81.96599,
    "state": "Chhattisgarh",
    "state_code": "22"
  },
  {
    "city": "Bacheli",
    "lat": 18.703879,
    "lon": 81.238708,
    "state": "Chhattisgarh",
    "state_code": "22"
  },
  {
    "city": "Bagicha",
    "lat": 31.8655,
    "lon": 77.170335,
    "state": "Chhattisgarh",
    "state_code": "22"
  },
  {
    "city": "Baikunthpur",
    "lat": 23.264873,
    "lon": 82.559999,
    "state": "Chhattisgarh",
    "state_code": "22"
  },
  {
    "city": "Balod",
    "lat": 20.727201,
    "lon": 81.20542,
    "state": "Chhattisgarh",
    "state_code": "22"
  },
  {
    "city": "Balodabazar",
    "lat": 21.656474,
    "lon": 82.160596,
    "state": "Chhattisgarh",
    "state_code": "22"
  },
  {
    "city": "Balrampur",
    "lat": 23.608054,
    "lon": 83.619062,
    "state": "Uttar Pradesh",
    "state_code": "22"
  },
  {
    "city": "Barpalli",
    "lat": 20.25295,
    "lon": 84.0048,
    "state": "Chhattisgarh",
    "state_code": "22"
  },
  {
    "city": "Basana",
    "lat": 27.957979,
    "lon": 76.596937,
    "state": "Chhattisgarh",
    "state_code": "22"
  },
  {
    "city": "Bastanar",
    "lat": 18.93625,
    "lon": 81.594744,
    "state": "Chhattisgarh",
    "state_code": "22"
  },
  {
    "city": "Bastar",
    "lat": 19.119128,
    "lon": 81.829186,
    "state": "Chhattisgarh",
    "state_code": "22"
  },
  {
    "city": "Bemetara",
    "lat": 21.678387,
    "lon": 81.441258,
    "state": "Chhattisgarh",
    "state_code": "22"
  },
  {
    "city": "Berla",
    "lat": 21.524526,
    "lon": 81.478489,
    "state": "Chhattisgarh",
    "state_code": "22"
  },
  {
    "city": "Bhairongarh",
    "lat": 23.145095,
    "lon": 74.776758,
    "state": "Chhattisgarh",
    "state_code": "22"
  },
  {
    "city": "Bhanupratappur",
    "lat": 20.310112,
    "lon": 81.072062,
    "state": "Chhattisgarh",
    "state_code": "22"
  },
  {
    "city": "Bharathpur",
    "lat": 25.762089,
    "lon": 85.456709,
    "state": "Chhattisgarh",
    "state_code": "22"
  },
  {
    "city": "Bhatapara",
    "lat": 21.735348,
    "lon": 81.944459,
    "state": "Chhattisgarh",
    "state_code": "22"
  },
  {
    "city": "Bhilai",
    "lat": 21.21,
    "lon": 81.38,
    "state": "Chhattisgarh",
    "state_code": "22"
  },
  {
    "city": "Bhilaigarh",
    "lat": 21.640615,
    "lon": 82.723933,
    "state": "Chhattisgarh",
    "state_code": "22"
  },
  {
    "city": "Bhopalpatnam",
    "lat": 18.863166,
    "lon": 80.383556,
    "state": "Chhattisgarh",
    "state_code": "22"
  },
  {
    "city": "Bijapur",
    "lat": 18.793568,
    "lon": 80.815939,
    "state": "Karnataka",
    "state_code": "22"
  },
  {
    "city": "Bilaspur",
    "lat": 22.09,
    "lon": 82.15,
    "state": "Himachal Pradesh",
    "state_code": "22"
  },
  {
    "city": "Bodla",
    "lat": 22.641817,
    "lon": 75.072706,
    "state": "Chhattisgarh",
    "state_code": "22"
  },
  {
    "city": "Bokaband",
    "lat": 21.29513,
    "lon": 81.82823,
    "state": "Chhattisgarh",
    "state_code": "22"
  },
  {
    "city": "Chandipara",
    "lat": 22.581083,
    "lon": 88.010598,
    "state": "Chhattisgarh",
    "state_code": "22"
  },
  {
    "city": "Chhinagarh",
    "lat": 21.29513,
    "lon": 81.82823,
    "state": "Chhattisgarh",
    "state_code": "22"
  },
  {
    "city": "Chhuriakala",
    "lat": 21.29513,
    "lon": 81.82823,
    "state": "Chhattisgarh",
    "state_code": "22"
  },
  {
    "city": "Chingmut",
    "lat": 21.29513,
    "lon": 81.82823,
    "state": "Chhattisgarh",
    "state_code": "22"
  },
  {
    "city": "Chuikhadan",
    "lat": 21.522135,
    "lon": 80.995733,
    "state": "Chhattisgarh",
    "state_code": "22"
  },
  {
    "city": "Dabhara",
    "lat": 29.558573,
    "lon": 79.189098,
    "state": "Chhattisgarh",
    "state_code": "22"
  },
  {
    "city": "Dallirajhara",
    "lat": 20.587575,
    "lon": 81.068452,
    "state": "Chhattisgarh",
    "state_code": "22"
  },
  {
    "city": "Dantewada",
    "lat": 18.889913,
    "lon": 81.347797,
    "state": "Chhattisgarh",
    "state_code": "22"
  },
  {
    "city": "Deobhog",
    "lat": 19.896895,
    "lon": 82.657262,
    "state": "Chhattisgarh",
    "state_code": "22"
  },
  {
    "city": "Dhamda",
    "lat": 21.460691,
    "lon": 81.330527,
    "state": "Chhattisgarh",
    "state_code": "22"
  },
  {
    "city": "Dhamtari",
    "lat": 20.71,
    "lon": 81.55,
    "state": "Chhattisgarh",
    "state_code": "22"
  },
  {
    "city": "Dharamjaigarh",
    "lat": 22.459626,
    "lon": 83.208918,
    "state": "Chhattisgarh",
    "state_code": "22"
  },
  {
    "city": "Dongargarh",
    "lat": 21.188487,
    "lon": 80.756012,
    "state": "Chhattisgarh",
    "state_code": "22"
  },
  {
    "city": "Durg",
    "lat": 21.18965,
    "lon": 81.285108,
    "state": "Chhattisgarh",
    "state_code": "22"
  },
  {
    "city": "Fingeshwar",
    "lat": 20.968842,
    "lon": 82.032008,
    "state": "Chhattisgarh",
    "state_code": "22"
  },
  {
    "city": "Gariaband",
    "lat": 20.633566,
    "lon": 82.063543,
    "state": "Chhattisgarh",
    "state_code": "22"
  },
  {
    "city": "Garpa",
    "lat": 19.339947,
    "lon": 81.06897,
    "state": "Chhattisgarh",
    "state_code": "22"
  },
  {
    "city": "Gharghoda",
    "lat": 22.167413,
    "lon": 83.348546,
    "state": "Chhattisgarh",
    "state_code": "22"
  },
  {
    "city": "Gogunda",
    "lat": 18.374407,
    "lon": 81.378703,
    "state": "Rajasthan",
    "state_code": "22"
  },
  {
    "city": "Ilamidi",
    "lat": 21.29513,
    "lon": 81.82823,
    "state": "Chhattisgarh",
    "state_code": "22"
  },
  {
    "city": "Jagdalpur",
    "lat": 19.18,
    "lon": 81.92,
    "state": "Madhya Pradesh",
    "state_code": "22"
  },
  {
    "city": "Janjgir",
    "lat": 22.017,
    "lon": 82.567,
    "state": "Chhattisgarh",
    "state_code": "22"
  },
  {
    "city": "Janjgir-Champa",
    "lat": 21.986403,
    "lon": 82.553661,
    "state": "Chhattisgarh",
    "state_code": "22"
  },
  {
    "city": "Jarwa",
    "lat": 27.646588,
    "lon": 82.524191,
    "state": "Chhattisgarh",
    "state_code": "22"
  },
  {
    "city": "Jashpur",
    "lat": 22.770251,
    "lon": 83.970801,
    "state": "Chhattisgarh",
    "state_code": "22"
  },
  {
    "city": "Jashpurnagar",
    "lat": 22.880205,
    "lon": 84.134919,
    "state": "Chhattisgarh",
    "state_code": "22"
  },
  {
    "city": "Kabirdham-Kawardha",
    "lat": 22.084438,
    "lon": 81.252904,
    "state": "Chhattisgarh",
    "state_code": "22"
  },
  {
    "city": "Kanker",
    "lat": 20.269275,
    "lon": 81.493211,
    "state": "Chhattisgarh",
    "state_code": "22"
  },
  {
    "city": "Kasdol",
    "lat": 21.619374,
    "lon": 82.427099,
    "state": "Chhattisgarh",
    "state_code": "22"
  },
  {
    "city": "Kawardha",
    "lat": 22.005925,
    "lon": 81.233205,
    "state": "Chhattisgarh",
    "state_code": "22"
  },
  {
    "city": "Keskal",
    "lat": 20.082661,
    "lon": 81.587598,
    "state": "Chhattisgarh",
    "state_code": "22"
  },
  {
    "city": "Khairgarh",
    "lat": 21.5295,
    "lon": 80.94832,
    "state": "Chhattisgarh",
    "state_code": "22"
  },
  {
    "city": "Kondagaon",
    "lat": 19.588577,
    "lon": 81.662874,
    "state": "Chhattisgarh",
    "state_code": "22"
  },
  {
    "city": "Konta",
    "lat": 17.811011,
    "lon": 81.383021,
    "state": "Chhattisgarh",
    "state_code": "22"
  },
  {
    "city": "Korba",
    "lat": 22.3458,
    "lon": 82.6963,
    "state": "Chhattisgarh",
    "state_code": "22"
  },
  {
    "city": "Korea",
    "lat": 23.2383,
    "lon": 82.390659,
    "state": "Chhattisgarh",
    "state_code": "22"
  },
  {
    "city": "Kota",
    "lat": 22.295916,
    "lon": 82.023947,
    "state": "Rajasthan",
    "state_code": "22"
  },
  {
    "city": "Kunkuri",
    "lat": 22.741987,
    "lon": 83.949499,
    "state": "Chhattisgarh",
    "state_code": "22"
  },
  {
    "city": "Kurud",
    "lat": 20.859398,
    "lon": 81.709978,
    "state": "Chhattisgarh",
    "state_code": "22"
  },
  {
    "city": "Lormi",
    "lat": 22.271539,
    "lon": 81.702259,
    "state": "Chhattisgarh",
    "state_code": "22"
  },
  {
    "city": "Mahasamund",
    "lat": 21.11,
    "lon": 82.1,
    "state": "Chhattisgarh",
    "state_code": "22"
  },
  {
    "city": "Makodi",
    "lat": 21.886077,
    "lon": 73.587783,
    "state": "Chhattisgarh",
    "state_code": "22"
  },
  {
    "city": "Manendragarh",
    "lat": 23.216723,
    "lon": 82.203581,
    "state": "Chhattisgarh",
    "state_code": "22"
  },
  {
    "city": "Manpur",
    "lat": 13.21409,
    "lon": 92.94347,
    "state": "Madhya Pradesh",
    "state_code": "35"
  },
  {
    "city": "Marwahi",
    "lat": 23.004382,
    "lon": 82.057228,
    "state": "Chhattisgarh",
    "state_code": "22"
  },
  {
    "city": "Mohla",
    "lat": 20.58197,
    "lon": 80.743804,
    "state": "Chhattisgarh",
    "state_code": "22"
  },
  {
    "city": "Mungeli",
    "lat": 22.07,
    "lon": 81.68,
    "state": "Chhattisgarh",
    "state_code": "22"
  },
  {
    "city": "Nagri",
    "lat": 32.1312,
    "lon": 76.476332,
    "state": "Chhattisgarh",
    "state_code": "22"
  },
  {
    "city": "Narainpur",
    "lat": 24.090881,
    "lon": 81.744113,
    "state": "Chhattisgarh",
    "state_code": "22"
  },
  {
    "city": "Narayanpur",
    "lat": 19.719153,
    "lon": 81.244411,
    "state": "Chhattisgarh",
    "state_code": "22"
  },
  {
    "city": "Neora",
    "lat": 21.550427,
    "lon": 81.795756,
    "state": "Chhattisgarh",
    "state_code": "22"
  },
  {
    "city": "Netanar",
    "lat": 18.607149,
    "lon": 81.879082,
    "state": "Chhattisgarh",
    "state_code": "22"
  },
  {
    "city": "Odgi",
    "lat": 23.285246,
    "lon": 82.537522,
    "state": "Chhattisgarh",
    "state_code": "22"
  },
  {
    "city": "Padamkot",
    "lat": 12.357458,
    "lon": 75.119385,
    "state": "Chhattisgarh",
    "state_code": "22"
  },
  {
    "city": "Pakhanjur",
    "lat": 20.038677,
    "lon": 80.624545,
    "state": "Chhattisgarh",
    "state_code": "22"
  },
  {
    "city": "Pali",
    "lat": 22.377857,
    "lon": 82.325363,
    "state": "Rajasthan",
    "state_code": "22"
  },
  {
    "city": "Pandaria",
    "lat": 22.219976,
    "lon": 81.410593,
    "state": "Chhattisgarh",
    "state_code": "22"
  },
  {
    "city": "Parasgaon",
    "lat": 21.903829,
    "lon": 79.03156,
    "state": "Chhattisgarh",
    "state_code": "22"
  },
  {
    "city": "Pasan",
    "lat": 22.8441,
    "lon": 82.198294,
    "state": "Chhattisgarh",
    "state_code": "22"
  },
  {
    "city": "Patan",
    "lat": 21.039229,
    "lon": 81.543616,
    "state": "Maharashtra",
    "state_code": "22"
  },
  {
    "city": "Pathalgaon",
    "lat": 22.556585,
    "lon": 83.45864,
    "state": "Chhattisgarh",
    "state_code": "22"
  },
  {
    "city": "Pendra",
    "lat": 22.774278,
    "lon": 81.960179,
    "state": "Chhattisgarh",
    "state_code": "22"
  },
  {
    "city": "Pratappur",
    "lat": 20.879822,
    "lon": 74.265784,
    "state": "Chhattisgarh",
    "state_code": "22"
  },
  {
    "city": "Premnagar",
    "lat": 22.963333,
    "lon": 82.69892,
    "state": "Chhattisgarh",
    "state_code": "22"
  },
  {
    "city": "Raigarh",
    "lat": 21.8974,
    "lon": 83.395,
    "state": "Chhattisgarh",
    "state_code": "22"
  },
  {
    "city": "Raipur",
    "lat": 21.2444,
    "lon": 81.6306,
    "state": "Rajasthan",
    "state_code": "22"
  },
  {
    "city": "Rajnandgaon",
    "lat": 21.068442,
    "lon": 80.797078,
    "state": "Chhattisgarh",
    "state_code": "22"
  },
  {
    "city": "Rajpur",
    "lat": 23.33535,
    "lon": 83.410431,
    "state": "Madhya Pradesh",
    "state_code": "22"
  },
  {
    "city": "Ramchandrapur",
    "lat": 18.174912,
    "lon": 78.514972,
    "state": "Chhattisgarh",
    "state_code": "22"
  },
  {
    "city": "Saraipali",
    "lat": 21.315211,
    "lon": 83.004789,
    "state": "Chhattisgarh",
    "state_code": "22"
  },
  {
    "city": "Saranggarh",
    "lat": 23.319028,
    "lon": 82.001811,
    "state": "Chhattisgarh",
    "state_code": "22"
  },
  {
    "city": "Sarona",
    "lat": 20.281289,
    "lon": 81.652533,
    "state": "Chhattisgarh",
    "state_code": "22"
  },
  {
    "city": "Semaria",
    "lat": 24.339976,
    "lon": 85.521554,
    "state": "Chhattisgarh",
    "state_code": "22"
  },
  {
    "city": "Shakti",
    "lat": 22.02715,
    "lon": 82.958967,
    "state": "Chhattisgarh",
    "state_code": "22"
  },
  {
    "city": "Sitapur",
    "lat": 22.778532,
    "lon": 83.495098,
    "state": "Uttar Pradesh",
    "state_code": "22"
  },
  {
    "city": "Sukma",
    "lat": 18.4,
    "lon": 81.6667,
    "state": "Chhattisgarh",
    "state_code": "22"
  },
  {
    "city": "Surajpur",
    "lat": 23.212528,
    "lon": 82.866725,
    "state": "Chhattisgarh",
    "state_code": "22"
  },
  {
    "city": "Surguja",
    "lat": 22.946913,
    "lon": 83.165694,
    "state": "Chhattisgarh",
    "state_code": "22"
  },
  {
    "city": "Tapkara",
    "lat": 22.505269,
    "lon": 83.950334,
    "state": "Chhattisgarh",
    "state_code": "22"
  },
  {
    "city": "Toynar",
    "lat": 18.843746,
    "lon": 81.684097,
    "state": "Chhattisgarh",
    "state_code": "22"
  },
  {
    "city": "Udaipur",
    "lat": 22.908831,
    "lon": 82.946177,
    "state": "Rajasthan",
    "state_code": "22"
  },
  {
    "city": "Uproda",
    "lat": 22.604265,
    "lon": 82.554402,
    "state": "Chhattisgarh",
    "state_code": "22"
  },
  {
    "city": "Amal",
    "lat": 22.56709,
    "lon": 79.493793,
    "state": "Dadra & Nagar Haveli",
    "state_code": "26"
  },
  {
    "city": "Amli",
    "lat": 24.113995,
    "lon": 75.501369,
    "state": "Dadra & Nagar Haveli",
    "state_code": "26"
  },
  {
    "city": "Bedpa",
    "lat": 20.094604,
    "lon": 73.197007,
    "state": "Dadra & Nagar Haveli",
    "state_code": "26"
  },
  {
    "city": "Chikhli",
    "lat": 20.349113,
    "lon": 76.252499,
    "state": "Dadra & Nagar Haveli",
    "state_code": "26"
  },
  {
    "city": "Dadra & Nagar Haveli",
    "lat": 20.24168,
    "lon": 73.0171,
    "state": "Dadra & Nagar Haveli",
    "state_code": "26"
  },
  {
    "city": "Dahikhed",
    "lat": 21.185518,
    "lon": 77.074682,
    "state": "Dadra & Nagar Haveli",
    "state_code": "26"
  },
  {
    "city": "Dolara",
    "lat": 18.999701,
    "lon": 77.359275,
    "state": "Dadra & Nagar Haveli",
    "state_code": "26"
  },
  {
    "city": "Galonda",
    "lat": 20.29783,
    "lon": 73.073467,
    "state": "Dadra & Nagar Haveli",
    "state_code": "26"
  },
  {
    "city": "Kanadi",
    "lat": 20.766351,
    "lon": 77.006624,
    "state": "Dadra & Nagar Haveli",
    "state_code": "26"
  },
  {
    "city": "Karchond",
    "lat": 20.133853,
    "lon": 73.154413,
    "state": "Dadra & Nagar Haveli",
    "state_code": "26"
  },
  {
    "city": "Khadoli",
    "lat": 20.163961,
    "lon": 73.030921,
    "state": "Dadra & Nagar Haveli",
    "state_code": "26"
  },
  {
    "city": "Kharadpada",
    "lat": 20.251117,
    "lon": 72.963058,
    "state": "Dadra & Nagar Haveli",
    "state_code": "26"
  },
  {
    "city": "Kherabari",
    "lat": 20.24168,
    "lon": 73.0171,
    "state": "Dadra & Nagar Haveli",
    "state_code": "26"
  },
  {
    "city": "Kherdi",
    "lat": 20.243032,
    "lon": 76.918212,
    "state": "Dadra & Nagar Haveli",
    "state_code": "26"
  },
  {
    "city": "Kothar",
    "lat": 24.286311,
    "lon": 81.233905,
    "state": "Dadra & Nagar Haveli",
    "state_code": "26"
  },
  {
    "city": "Luari",
    "lat": 20.187932,
    "lon": 72.974547,
    "state": "Dadra & Nagar Haveli",
    "state_code": "26"
  },
  {
    "city": "Mashat",
    "lat": 20.245136,
    "lon": 73.008414,
    "state": "Dadra & Nagar Haveli",
    "state_code": "26"
  },
  {
    "city": "Rakholi",
    "lat": 25.092274,
    "lon": 75.274855,
    "state": "Dadra & Nagar Haveli",
    "state_code": "26"
  },
  {
    "city": "Rudana",
    "lat": 30.566437,
    "lon": 77.746038,
    "state": "Dadra & Nagar Haveli",
    "state_code": "26"
  },
  {
    "city": "Saili",
    "lat": 21.43414,
    "lon": 75.198531,
    "state": "Dadra & Nagar Haveli",
    "state_code": "26"
  },
  {
    "city": "Sili",
    "lat": 24.480227,
    "lon": 80.249368,
    "state": "Dadra & Nagar Haveli",
    "state_code": "26"
  },
  {
    "city": "Silvassa",
    "lat": 20.273677,
    "lon": 73.004579,
    "state": "Dadra & Nagar Haveli",
    "state_code": "26"
  },
  {
    "city": "Sindavni",
    "lat": 20.28877,
    "lon": 73.095658,
    "state": "Dadra & Nagar Haveli",
    "state_code": "26"
  },
  {
    "city": "Udva",
    "lat": 20.24168,
    "lon": 73.0171,
    "state": "Dadra & Nagar Haveli",
    "state_code": "26"
  },
  {
    "city": "Umbarkoi",
    "lat": 20.24503,
    "lon": 73.05978,
    "state": "Dadra & Nagar Haveli",
    "state_code": "26"
  },
  {
    "city": "Vansda",
    "lat": 20.28877,
    "lon": 73.095658,
    "state": "Dadra & Nagar Haveli",
    "state_code": "26"
  },
  {
    "city": "Vasona",
    "lat": 20.2058,
    "lon": 73.026121,
    "state": "Dadra & Nagar Haveli",
    "state_code": "26"
  },
  {
    "city": "Velugam",
    "lat": 20.147136,
    "lon": 72.981024,
    "state": "Dadra & Nagar Haveli",
    "state_code": "26"
  },
  {
    "city": "Brancavare",
    "lat": 23.210411,
    "lon": 72.653507,
    "state": "Daman & Diu",
    "state_code": "25"
  },
  {
    "city": "Dagasi",
    "lat": 23.210411,
    "lon": 72.653507,
    "state": "Daman & Diu",
    "state_code": "25"
  },
  {
    "city": "Daman",
    "lat": 20.41697,
    "lon": 72.833173,
    "state": "Daman & Diu",
    "state_code": "25"
  },
  {
    "city": "Diu",
    "lat": 20.713778,
    "lon": 70.985364,
    "state": "Daman & Diu",
    "state_code": "25"
  },
  {
    "city": "Magarvara",
    "lat": 23.210411,
    "lon": 72.653507,
    "state": "Daman & Diu",
    "state_code": "25"
  },
  {
    "city": "Nagwa",
    "lat": 23.210411,
    "lon": 72.653507,
    "state": "Daman & Diu",
    "state_code": "25"
  },
  {
    "city": "Pariali",
    "lat": 15.496965,
    "lon": 73.834258,
    "state": "Daman & Diu",
    "state_code": "25"
  },
  {
    "city": "Passo Covo",
    "lat": 23.210411,
    "lon": 72.653507,
    "state": "Daman & Diu",
    "state_code": "25"
  },
  {
    "city": "Central Delhi",
    "lat": 28.615879,
    "lon": 77.212282,
    "state": "Delhi",
    "state_code": "07"
  },
  {
    "city": "East Delhi",
    "lat": 28.557163,
    "lon": 77.163665,
    "state": "Delhi",
    "state_code": "07"
  },
  {
    "city": "New Delhi",
    "lat": 28.6139,
    "lon": 77.2089,
    "state": "Delhi",
    "state_code": "07"
  },
  {
    "city": "North Delhi",
    "lat": 28.682772,
    "lon": 77.206017,
    "state": "Delhi",
    "state_code": "07"
  },
  {
    "city": "North East Delhi",
    "lat": 28.651718,
    "lon": 77.221939,
    "state": "Delhi",
    "state_code": "07"
  },
  {
    "city": "North West Delhi",
    "lat": 28.561305,
    "lon": 77.219692,
    "state": "Delhi",
    "state_code": "07"
  },
  {
    "city": "South Delhi",
    "lat": 28.60798,
    "lon": 77.199058,
    "state": "Delhi",
    "state_code": "07"
  },
  {
    "city": "South West Delhi",
    "lat": 28.629584,
    "lon": 77.078085,
    "state": "Delhi",
    "state_code": "07"
  },
  {
    "city": "West Delhi",
    "lat": 28.656833,
    "lon": 77.155813,
    "state": "Delhi",
    "state_code": "07"
  },
  {
    "city": "Canacona",
    "lat": 15.006907,
    "lon": 74.057064,
    "state": "Goa",
    "state_code": "30"
  },
  {
    "city": "Candolim",
    "lat": 15.520153,
    "lon": 73.765942,
    "state": "Goa",
    "state_code": "30"
  },
  {
    "city": "Chinchinim",
    "lat": 15.211381,
    "lon": 73.9772,
    "state": "Goa",
    "state_code": "30"
  },
  {
    "city": "Cortalim",
    "lat": 15.3978,
    "lon": 73.9106,
    "state": "Goa",
    "state_code": "30"
  },
  {
    "city": "Goa",
    "lat": 15.502333,
    "lon": 73.911743,
    "state": "Goa",
    "state_code": "30"
  },
  {
    "city": "Jua",
    "lat": 29.817748,
    "lon": 78.591367,
    "state": "Goa",
    "state_code": "30"
  },
  {
    "city": "Madgaon",
    "lat": 15.2736,
    "lon": 73.9581,
    "state": "Goa",
    "state_code": "30"
  },
  {
    "city": "Mahem",
    "lat": 15.5796,
    "lon": 73.926,
    "state": "Goa",
    "state_code": "30"
  },
  {
    "city": "Mapuca",
    "lat": 15.592651,
    "lon": 73.811974,
    "state": "Goa",
    "state_code": "30"
  },
  {
    "city": "Marmagao",
    "lat": 15.4,
    "lon": 73.8,
    "state": "Goa",
    "state_code": "30"
  },
  {
    "city": "Panji",
    "lat": 33.302879,
    "lon": 74.719069,
    "state": "Goa",
    "state_code": "30"
  },
  {
    "city": "Ponda",
    "lat": 15.4034,
    "lon": 74.0152,
    "state": "Goa",
    "state_code": "30"
  },
  {
    "city": "Sanvordem",
    "lat": 15.271403,
    "lon": 74.106924,
    "state": "Goa",
    "state_code": "30"
  },
  {
    "city": "Terekhol",
    "lat": 15.72149,
    "lon": 73.68824,
    "state": "Goa",
    "state_code": "30"
  },
  {
    "city": "Ahmedabad",
    "lat": 23.0225,
    "lon": 72.5714,
    "state": "Gujarat",
    "state_code": "24"
  },
  {
    "city": "Ahwa",
    "lat": 20.75,
    "lon": 73.6833,
    "state": "Gujarat",
    "state_code": "24"
  },
  {
    "city": "Amod",
    "lat": 21.990783,
    "lon": 72.870626,
    "state": "Gujarat",
    "state_code": "24"
  },
  {
    "city": "Amreli",
    "lat": 21.6006,
    "lon": 71.2164,
    "state": "Gujarat",
    "state_code": "24"
  },
  {
    "city": "Anand",
    "lat": 22.556,
    "lon": 72.951,
    "state": "Gujarat",
    "state_code": "24"
  },
  {
    "city": "Anjar",
    "lat": 23.110357,
    "lon": 70.028286,
    "state": "Gujarat",
    "state_code": "24"
  },
  {
    "city": "Ankaleshwar",
    "lat": 23.361661,
    "lon": 71.64895,
    "state": "Gujarat",
    "state_code": "24"
  },
  {
    "city": "Babra",
    "lat": 21.8442,
    "lon": 71.3042,
    "state": "Gujarat",
    "state_code": "24"
  },
  {
    "city": "Balasinor",
    "lat": 22.956171,
    "lon": 73.337013,
    "state": "Gujarat",
    "state_code": "24"
  },
  {
    "city": "Banaskantha",
    "lat": 24.269392,
    "lon": 72.162025,
    "state": "Gujarat",
    "state_code": "24"
  },
  {
    "city": "Bansada",
    "lat": 20.862341,
    "lon": 86.85997,
    "state": "Gujarat",
    "state_code": "24"
  },
  {
    "city": "Bardoli",
    "lat": 21.12,
    "lon": 73.12,
    "state": "Gujarat",
    "state_code": "24"
  },
  {
    "city": "Bareja",
    "lat": 22.85,
    "lon": 72.5833,
    "state": "Gujarat",
    "state_code": "24"
  },
  {
    "city": "Baroda",
    "lat": 22.664179,
    "lon": 72.562605,
    "state": "Madhya Pradesh",
    "state_code": "24"
  },
  {
    "city": "Barwala",
    "lat": 22.151862,
    "lon": 71.895706,
    "state": "Haryana",
    "state_code": "24"
  },
  {
    "city": "Bayad",
    "lat": 23.224859,
    "lon": 73.215304,
    "state": "Gujarat",
    "state_code": "24"
  },
  {
    "city": "Bhachav",
    "lat": 23.361661,
    "lon": 71.64895,
    "state": "Gujarat",
    "state_code": "24"
  },
  {
    "city": "Bhanvad",
    "lat": 21.93,
    "lon": 69.78,
    "state": "Gujarat",
    "state_code": "24"
  },
  {
    "city": "Bharuch",
    "lat": 21.712,
    "lon": 72.993,
    "state": "Gujarat",
    "state_code": "24"
  },
  {
    "city": "Bhavnagar",
    "lat": 21.76,
    "lon": 72.15,
    "state": "Gujarat",
    "state_code": "24"
  },
  {
    "city": "Bhiloda",
    "lat": 23.46,
    "lon": 73.15,
    "state": "Gujarat",
    "state_code": "24"
  },
  {
    "city": "Bhuj",
    "lat": 23.25,
    "lon": 69.67,
    "state": "Gujarat",
    "state_code": "24"
  },
  {
    "city": "Borsad",
    "lat": 22.409402,
    "lon": 72.905252,
    "state": "Gujarat",
    "state_code": "24"
  },
  {
    "city": "Botad",
    "lat": 22.17,
    "lon": 71.67,
    "state": "Gujarat",
    "state_code": "24"
  },
  {
    "city": "Chanasma",
    "lat": 23.72,
    "lon": 72.12,
    "state": "Gujarat",
    "state_code": "24"
  },
  {
    "city": "Chhota Udaipur",
    "lat": 22.304012,
    "lon": 74.015798,
    "state": "Gujarat",
    "state_code": "24"
  },
  {
    "city": "Chotila",
    "lat": 22.42439,
    "lon": 71.19924,
    "state": "Gujarat",
    "state_code": "24"
  },
  {
    "city": "Dabhoi",
    "lat": 22.1376,
    "lon": 73.4162,
    "state": "Gujarat",
    "state_code": "24"
  },
  {
    "city": "Dahod",
    "lat": 22.91941,
    "lon": 74.134273,
    "state": "Gujarat",
    "state_code": "24"
  },
  {
    "city": "Damnagar",
    "lat": 22.145343,
    "lon": 69.346745,
    "state": "Gujarat",
    "state_code": "24"
  },
  {
    "city": "Dang",
    "lat": 26.426847,
    "lon": 75.096016,
    "state": "Gujarat",
    "state_code": "24"
  },
  {
    "city": "Danta",
    "lat": 24.187557,
    "lon": 72.764952,
    "state": "Gujarat",
    "state_code": "24"
  },
  {
    "city": "Dasada",
    "lat": 23.323891,
    "lon": 71.831442,
    "state": "Gujarat",
    "state_code": "24"
  },
  {
    "city": "Dediapada",
    "lat": 21.627137,
    "lon": 73.589808,
    "state": "Gujarat",
    "state_code": "24"
  },
  {
    "city": "Deesa",
    "lat": 24.259498,
    "lon": 72.180335,
    "state": "Gujarat",
    "state_code": "24"
  },
  {
    "city": "Dehgam",
    "lat": 23.16831,
    "lon": 72.820721,
    "state": "Gujarat",
    "state_code": "24"
  },
  {
    "city": "Deodar",
    "lat": 13.228123,
    "lon": 77.722511,
    "state": "Gujarat",
    "state_code": "24"
  },
  {
    "city": "Dhandhuka",
    "lat": 22.37,
    "lon": 71.98,
    "state": "Gujarat",
    "state_code": "24"
  },
  {
    "city": "Dhanera",
    "lat": 24.52,
    "lon": 72.02,
    "state": "Gujarat",
    "state_code": "24"
  },
  {
    "city": "Dharampur",
    "lat": 20.53,
    "lon": 73.18,
    "state": "Gujarat",
    "state_code": "24"
  },
  {
    "city": "Dhari",
    "lat": 21.3261,
    "lon": 71.0272,
    "state": "Gujarat",
    "state_code": "24"
  },
  {
    "city": "Dholka",
    "lat": 22.72,
    "lon": 72.47,
    "state": "Gujarat",
    "state_code": "24"
  },
  {
    "city": "Dhoraji",
    "lat": 21.7337,
    "lon": 70.4499,
    "state": "Gujarat",
    "state_code": "24"
  },
  {
    "city": "Dhrangadhra",
    "lat": 22.98,
    "lon": 71.47,
    "state": "Gujarat",
    "state_code": "24"
  },
  {
    "city": "Dhrol",
    "lat": 22.57,
    "lon": 70.42,
    "state": "Gujarat",
    "state_code": "24"
  },
  {
    "city": "Dwarka",
    "lat": 22.2464,
    "lon": 68.9667,
    "state": "Gujarat",
    "state_code": "24"
  },
  {
    "city": "Gadhada",
    "lat": 21.97,
    "lon": 71.57,
    "state": "Gujarat",
    "state_code": "24"
  },
  {
    "city": "Gandhi Nagar",
    "lat": 22.791949,
    "lon": 70.684505,
    "state": "Gujarat",
    "state_code": "24"
  },
  {
    "city": "Gariadhar",
    "lat": 21.53,
    "lon": 71.58,
    "state": "Gujarat",
    "state_code": "24"
  },
  {
    "city": "Godhra",
    "lat": 20.9231,
    "lon": 70.9214,
    "state": "Gujarat",
    "state_code": "24"
  },
  {
    "city": "Gogodar",
    "lat": 23.361661,
    "lon": 71.64895,
    "state": "Gujarat",
    "state_code": "24"
  },
  {
    "city": "Gondal",
    "lat": 21.958,
    "lon": 70.795,
    "state": "Gujarat",
    "state_code": "24"
  },
  {
    "city": "Halol",
    "lat": 22.5,
    "lon": 73.47,
    "state": "Gujarat",
    "state_code": "24"
  },
  {
    "city": "Halvad",
    "lat": 23.02,
    "lon": 71.18,
    "state": "Gujarat",
    "state_code": "24"
  },
  {
    "city": "Harij",
    "lat": 23.7,
    "lon": 71.9,
    "state": "Gujarat",
    "state_code": "24"
  },
  {
    "city": "Himatnagar",
    "lat": 23.6,
    "lon": 72.95,
    "state": "Gujarat",
    "state_code": "24"
  },
  {
    "city": "Idar",
    "lat": 23.839,
    "lon": 73.002,
    "state": "Gujarat",
    "state_code": "24"
  },
  {
    "city": "Jambusar",
    "lat": 22.05,
    "lon": 72.8,
    "state": "Gujarat",
    "state_code": "24"
  },
  {
    "city": "Jamjodhpur",
    "lat": 21.90219,
    "lon": 70.0357,
    "state": "Gujarat",
    "state_code": "24"
  },
  {
    "city": "Jamkalyanpur",
    "lat": 23.361661,
    "lon": 71.64895,
    "state": "Gujarat",
    "state_code": "24"
  },
  {
    "city": "Jamnagar",
    "lat": 22.47,
    "lon": 70.07,
    "state": "Gujarat",
    "state_code": "24"
  },
  {
    "city": "Jasdan",
    "lat": 22.03,
    "lon": 71.2,
    "state": "Gujarat",
    "state_code": "24"
  },
  {
    "city": "Jetpur",
    "lat": 21.7542,
    "lon": 70.6222,
    "state": "Gujarat",
    "state_code": "24"
  },
  {
    "city": "Jhagadia",
    "lat": 21.71572,
    "lon": 73.149703,
    "state": "Gujarat",
    "state_code": "24"
  },
  {
    "city": "Jhalod",
    "lat": 23.100627,
    "lon": 74.156002,
    "state": "Gujarat",
    "state_code": "24"
  },
  {
    "city": "Jodia",
    "lat": 22.823889,
    "lon": 70.552032,
    "state": "Gujarat",
    "state_code": "24"
  },
  {
    "city": "Junagadh",
    "lat": 21.5222,
    "lon": 70.4579,
    "state": "Gujarat",
    "state_code": "24"
  },
  {
    "city": "Junagarh",
    "lat": 19.861079,
    "lon": 82.935319,
    "state": "Gujarat",
    "state_code": "24"
  },
  {
    "city": "Kalawad",
    "lat": 22.324011,
    "lon": 69.502672,
    "state": "Gujarat",
    "state_code": "24"
  },
  {
    "city": "Kalol",
    "lat": 22.606,
    "lon": 73.463,
    "state": "Gujarat",
    "state_code": "24"
  },
  {
    "city": "Kapad Wanj",
    "lat": 23.361661,
    "lon": 71.64895,
    "state": "Gujarat",
    "state_code": "24"
  },
  {
    "city": "Keshod",
    "lat": 21.3,
    "lon": 70.25,
    "state": "Gujarat",
    "state_code": "24"
  },
  {
    "city": "Khambhalia",
    "lat": 22.208263,
    "lon": 69.65358,
    "state": "Gujarat",
    "state_code": "24"
  },
  {
    "city": "Khavda",
    "lat": 23.824499,
    "lon": 69.729838,
    "state": "Gujarat",
    "state_code": "24"
  },
  {
    "city": "Kheda",
    "lat": 22.75,
    "lon": 72.68,
    "state": "Gujarat",
    "state_code": "24"
  },
  {
    "city": "Khedbrahma",
    "lat": 24.031084,
    "lon": 73.048402,
    "state": "Gujarat",
    "state_code": "24"
  },
  {
    "city": "Kheralu",
    "lat": 23.88,
    "lon": 72.62,
    "state": "Gujarat",
    "state_code": "24"
  },
  {
    "city": "Kodinar",
    "lat": 20.86,
    "lon": 70.8,
    "state": "Gujarat",
    "state_code": "24"
  },
  {
    "city": "Kunkawav",
    "lat": 23.361661,
    "lon": 71.64895,
    "state": "Gujarat",
    "state_code": "24"
  },
  {
    "city": "Kutch",
    "lat": 23.583333,
    "lon": 70,
    "state": "Gujarat",
    "state_code": "24"
  },
  {
    "city": "Kutiyana",
    "lat": 21.63,
    "lon": 69.98,
    "state": "Gujarat",
    "state_code": "24"
  },
  {
    "city": "Lakhpat",
    "lat": 23.826888,
    "lon": 68.775158,
    "state": "Gujarat",
    "state_code": "24"
  },
  {
    "city": "Lakhtar",
    "lat": 22.855333,
    "lon": 71.791692,
    "state": "Gujarat",
    "state_code": "24"
  },
  {
    "city": "Lalpur",
    "lat": 22.610287,
    "lon": 70.554972,
    "state": "Gujarat",
    "state_code": "24"
  },
  {
    "city": "Limbdi",
    "lat": 22.5685,
    "lon": 71.7949,
    "state": "Gujarat",
    "state_code": "24"
  },
  {
    "city": "Limkheda",
    "lat": 22.832186,
    "lon": 73.98807,
    "state": "Gujarat",
    "state_code": "24"
  },
  {
    "city": "Lunavada",
    "lat": 23.1333,
    "lon": 73.6167,
    "state": "Gujarat",
    "state_code": "24"
  },
  {
    "city": "Mahuva",
    "lat": 21.0833,
    "lon": 71.8,
    "state": "Gujarat",
    "state_code": "24"
  },
  {
    "city": "Malia-Hatina",
    "lat": 21.158209,
    "lon": 70.308395,
    "state": "Gujarat",
    "state_code": "24"
  },
  {
    "city": "Maliya",
    "lat": 21.068827,
    "lon": 71.728203,
    "state": "Gujarat",
    "state_code": "24"
  },
  {
    "city": "Malpur",
    "lat": 23.359433,
    "lon": 73.464975,
    "state": "Gujarat",
    "state_code": "24"
  },
  {
    "city": "Manavadar",
    "lat": 21.5,
    "lon": 70.13,
    "state": "Gujarat",
    "state_code": "24"
  },
  {
    "city": "Mandvi",
    "lat": 21.15,
    "lon": 73.18,
    "state": "Gujarat",
    "state_code": "24"
  },
  {
    "city": "Mangrol",
    "lat": 21.12,
    "lon": 70.12,
    "state": "Rajasthan",
    "state_code": "24"
  },
  {
    "city": "Mehmedabad",
    "lat": 22.823873,
    "lon": 72.755726,
    "state": "Gujarat",
    "state_code": "24"
  },
  {
    "city": "Mehsana",
    "lat": 23.606023,
    "lon": 72.404478,
    "state": "Gujarat",
    "state_code": "24"
  },
  {
    "city": "Miyagam",
    "lat": 22.039749,
    "lon": 73.06097,
    "state": "Gujarat",
    "state_code": "24"
  },
  {
    "city": "Modasa",
    "lat": 23.47,
    "lon": 73.3,
    "state": "Gujarat",
    "state_code": "24"
  },
  {
    "city": "Morvi",
    "lat": 22.812746,
    "lon": 70.828635,
    "state": "Gujarat",
    "state_code": "24"
  },
  {
    "city": "Muli",
    "lat": 22.6388,
    "lon": 71.458,
    "state": "Gujarat",
    "state_code": "24"
  },
  {
    "city": "Mundra",
    "lat": 22.85,
    "lon": 69.73,
    "state": "Gujarat",
    "state_code": "24"
  },
  {
    "city": "Nadiad",
    "lat": 22.69,
    "lon": 72.86,
    "state": "Gujarat",
    "state_code": "24"
  },
  {
    "city": "Nakhatrana",
    "lat": 23.349527,
    "lon": 69.265385,
    "state": "Gujarat",
    "state_code": "24"
  },
  {
    "city": "Nalia",
    "lat": 31.121596,
    "lon": 77.33639,
    "state": "Gujarat",
    "state_code": "24"
  },
  {
    "city": "Narmada",
    "lat": 21.739262,
    "lon": 73.626246,
    "state": "Gujarat",
    "state_code": "24"
  },
  {
    "city": "Naswadi",
    "lat": 22.047985,
    "lon": 73.732003,
    "state": "Gujarat",
    "state_code": "24"
  },
  {
    "city": "Navasari",
    "lat": 20.952407,
    "lon": 72.932383,
    "state": "Gujarat",
    "state_code": "24"
  },
  {
    "city": "Nizar",
    "lat": 21.476998,
    "lon": 74.195811,
    "state": "Gujarat",
    "state_code": "24"
  },
  {
    "city": "Okha",
    "lat": 22.4667,
    "lon": 69.0667,
    "state": "Gujarat",
    "state_code": "24"
  },
  {
    "city": "Paddhari",
    "lat": 22.43,
    "lon": 70.6,
    "state": "Gujarat",
    "state_code": "24"
  },
  {
    "city": "Padra",
    "lat": 22.23,
    "lon": 73.08,
    "state": "Gujarat",
    "state_code": "24"
  },
  {
    "city": "Palanpur",
    "lat": 24.1722,
    "lon": 72.4333,
    "state": "Gujarat",
    "state_code": "24"
  },